[
  {
    "id": "GW6JMATANIMGCVSYNJVBGTMSHRAISOHP",
    "name": "1. Deutsches Polizeioldtimer Museum Marburg",
    "sector": "sec_06",
    "latitude": "50.7963287312276",
    "longitude": "8.724051729411313",
    "locationDisplayName": "1. Deutsche Polizeioldtimer-Museum Marburg, K 68, Neuhöfe, Cyriaxweimar, Marburg, Landkreis Marburg-Biedenkopf, Hessen, 35041, Deutschland",
    "hasItems": false,
    "numberOfItems": 0,
    "children": [],
    "level": -1
  },
  {
    "id": "2GJUO7RSKB56546VZZIK5GN7GZUYU5L3",
    "name": "Abenteuermuseum Saarbrücken",
    "sector": "sec_06",
    "latitude": "49.2450332",
    "longitude": "6.9889859",
    "locationDisplayName": "Schweringstraße, Rodenhof, Saarbrücken, Regionalverband Saarbrücken, Saarland, 66113, Deutschland",
    "hasItems": false,
    "numberOfItems": 0,
    "children": [],
    "level": -1
  },
  {
    "id": "H4JP4VEFV5UOKOD5MR5S44FGBX4OLE3P",
    "name": "aberle-media GmbH",
    "sector": "sec_01",
    "latitude": "49.44608",
    "longitude": "7.78333",
    "locationDisplayName": "17, Bäckerstraße, Kalkofen, Grübentälchen, Kaiserslautern, Rheinland-Pfalz, 67657, Deutschland",
    "hasItems": false,
    "numberOfItems": 0,
    "children": [],
    "level": -1
  },
  {
    "id": "FAQG7O7Y24Z6CJM333TYLWEZAYNR5446",
    "name": "AddF - Archiv der deutschen Frauenbewegung",
    "sector": "sec_04",
    "latitude": "51.3259597",
    "longitude": "9.5035507",
    "locationDisplayName": "57, Gottschalkstraße, Schillerviertel, Nord (Holland), Kassel, Hessen, 34127, Deutschland",
    "hasItems": false,
    "numberOfItems": 0,
    "children": [
      {
        "id": "H3WXXQ3IS7EXHVRTM6MQEXMFQW7UIC4K",
        "name": "AddF - Archiv der deutschen Frauenbewegung. Archiv",
        "sector": "sec_01",
        "latitude": "51.3259597",
        "longitude": "9.5035507",
        "locationDisplayName": "57, Gottschalkstraße, Schillerviertel, Nord (Holland), Kassel, Hessen, 34127, Deutschland",
        "hasItems": false,
        "numberOfItems": 0,
        "children": [],
        "level": -1
      },
      {
        "id": "I7EO7G2D6ZN76ZN5JPCYQHOT3JNFEV3N",
        "name": "AddF - Archiv der deutschen Frauenbewegung. Bibliothek",
        "sector": "sec_02",
        "latitude": "51.3259597",
        "longitude": "9.5035507",
        "locationDisplayName": "57, Gottschalkstraße, Schillerviertel, Nord (Holland), Kassel, Hessen, 34127, Deutschland",
        "hasItems": false,
        "numberOfItems": 0,
        "children": [],
        "level": -1
      }
    ],
    "level": -1
  },
  {
    "id": "S4RC3GUO3BPGUHLYYYXIFKL2CHQQKD2W",
    "name": "Adveniat-Bibliothek",
    "sector": "sec_02",
    "latitude": "51.45427",
    "longitude": "7.01546",
    "locationDisplayName": "2, Gildehofstraße, Stadtkern, Essen, Regierungsbezirk Düsseldorf, Nordrhein-Westfalen, 45127, Deutschland",
    "hasItems": false,
    "numberOfItems": 0,
    "children": [],
    "level": -1
  },
  {
    "id": "NRM3VEO5GAHBTNDM7C7QIDNWJFPPC7XM",
    "name": "Afro-karibisches Musikarchiv",
    "sector": "sec_01",
    "latitude": "47.8647091",
    "longitude": "9.3802287",
    "locationDisplayName": "16, Seeblick, Illmensee, Verwaltungsgemeinschaft Pfullendorf, Landkreis Sigmaringen, Regierungsbezirk Tübingen, Baden-Württemberg, 88636, Deutschland",
    "hasItems": false,
    "numberOfItems": 0,
    "children": [],
    "level": -1
  },
  {
    "id": "SM4XY73XJVMFWSRQHSJDJYCHL7QWR5HA",
    "name": "Akademie der Künste, Archiv",
    "sector": "sec_01",
    "latitude": "52.52821895979712",
    "longitude": "13.379415360118855",
    "locationDisplayName": "10, Robert-Koch-Platz, Mitte, Berlin, 10115, Deutschland",
    "hasItems": true,
    "numberOfItems": 134681,
    "children": [],
    "level": -1
  },
  {
    "id": "L4CPXD3O2CRKVWVZ5ZCWTIAOA4UT3TPE",
    "name": "Akademie der Wissenschaften in Hamburg",
    "sector": "sec_04",
    "latitude": "53.562655",
    "longitude": "9.9878162",
    "locationDisplayName": "Raphael Broches, Edmund-Siemers-Allee, Rotherbaum, Eimsbüttel, Hamburg, 20146, Deutschland",
    "hasItems": false,
    "numberOfItems": 0,
    "children": [],
    "level": -1
  },
  {
    "id": "NC6HCVTJBQRXMHIDKG6P5AEYR357BVSU",
    "name": "Akademischer Segler-Verein e.V.",
    "sector": "sec_01",
    "latitude": "52.5074273",
    "longitude": "13.1883576",
    "locationDisplayName": "Akademischer Segler-Verein e.V., 57, Scharfe Lanke, Marina Lanke Werft, Wilhelmstadt, Spandau, Berlin, 13595, Deutschland",
    "hasItems": false,
    "numberOfItems": 0,
    "children": [],
    "level": -1
  },
  {
    "id": "2EX52UF7IER5ZUN6XT7YZJGM7KI4VDYS",
    "name": "Albert-Ludwigs-Universität Freiburg",
    "sector": "sec_04",
    "latitude": "47.9983106",
    "longitude": "7.8479419",
    "locationDisplayName": "6, Fahnenbergplatz, Altstadt-Ring, Altstadt, Freiburg im Breisgau, Baden-Württemberg, 79098, Deutschland",
    "hasItems": true,
    "numberOfItems": 436911,
    "children": [
      {
        "id": "T2RKN75ULJFTCAS7TWIZASR72TZTW2EF",
        "name": "Uniseum der Albert-Ludwigs-Universität",
        "sector": "sec_06",
        "latitude": "47.9953938",
        "longitude": "7.8483221",
        "locationDisplayName": "Alte Universität, 17, Bertoldstraße, Altstadt-Mitte, Altstadt, Freiburg im Breisgau, Baden-Württemberg, 79098, Deutschland",
        "hasItems": false,
        "numberOfItems": 0,
        "children": [],
        "level": -1
      },
      {
        "id": "JWBEKCSKBDEMBMC2D4VBF7BM4PKIQLXR",
        "name": "Universitätsarchiv der Albert-Ludwigs-Universität Freiburg",
        "sector": "sec_01",
        "latitude": "47.99254",
        "longitude": "7.84498",
        "locationDisplayName": "Internationale Graduiertenakademie, 14, Werthmannstraße, Altstadt-Ring, Altstadt, Freiburg im Breisgau, Regierungsbezirk Freiburg, Baden-Württemberg, 79098, Deutschland",
        "hasItems": true,
        "numberOfItems": 280377,
        "children": [],
        "level": -1
      },
      {
        "id": "4FR25WTVWVHVP7KMWQFYKWCU4TKE2BSY",
        "name": "Universitätsbibliothek der Albert-Ludwigs-Universität Freiburg",
        "sector": "sec_02",
        "latitude": "47.99432889940169",
        "longitude": "7.844859930688472",
        "locationDisplayName": "Universitätsbibliothek, 2, Platz der Universität, Altstadt-Ring, Altstadt, Freiburg im Breisgau, Regierungsbezirk Freiburg, Baden-Württemberg, 79098, Deutschland",
        "hasItems": true,
        "numberOfItems": 156534,
        "children": [],
        "level": -1
      }
    ],
    "level": -1
  },
  {
    "id": "WEVZTYMZKPRKULXN22O4BGBS3N3D3ZOR",
    "name": "Alemannisches Institut Freiburg im Breisgau e.V.",
    "sector": "sec_04",
    "latitude": "47.9957641",
    "longitude": "7.8447596",
    "locationDisplayName": "45, Bertoldstraße, Altstadt-Ring, Altstadt, Freiburg im Breisgau, Regierungsbezirk Freiburg, Baden-Württemberg, 79098, Deutschland",
    "hasItems": false,
    "numberOfItems": 0,
    "children": [
      {
        "id": "MXKPZWYNEUUZCDLAU4U5LCJJSUE2CUAH",
        "name": "Alemannisches Institut, Arbeitsgruppe Tübingen",
        "sector": "sec_04",
        "latitude": "48.52586",
        "longitude": "9.0622",
        "locationDisplayName": "Hegelbau, 36, Wilhelmstraße, Denzenberg/Sand, Lustnau, Tübingen, Landkreis Tübingen, Regierungsbezirk Tübingen, Baden-Württemberg, 72074, Deutschland",
        "hasItems": false,
        "numberOfItems": 0,
        "children": [],
        "level": -1
      }
    ],
    "level": -1
  },
  {
    "id": "HM7N6DKNWWBCJHBA3EB4RDK5IG3KW6EX",
    "name": "Alfred Ehrhardt Stiftung",
    "sector": "sec_05",
    "latitude": "52.526613",
    "longitude": "13.3938875",
    "locationDisplayName": "Alfred Ehrhard Stiftung, 75, Auguststraße, Spandauer Vorstadt, Mitte, Berlin, 10115, Deutschland",
    "hasItems": true,
    "numberOfItems": 4218,
    "children": [],
    "level": -1
  },
  {
    "id": "BR5TWA34GHAFGC5CKLZVSY3LJXRL34VO",
    "name": "Alice Salomon Archiv der ASH Berlin",
    "sector": "sec_01",
    "latitude": "52.49141111134009",
    "longitude": "13.352039123417647",
    "locationDisplayName": "Pestalozzi-Fröbel-Haus, 8, Karl-Schrader-Straße, Schöneberg, Tempelhof-Schöneberg, Berlin, 10781, Deutschland",
    "hasItems": false,
    "numberOfItems": 0,
    "children": [],
    "level": -1
  },
  {
    "id": "SWGJLNR4GHKQHPA3A6RPKG3GAQITW2LW",
    "name": "AlliiertenMuseum e.V.",
    "sector": "sec_06",
    "latitude": "52.45599115950166",
    "longitude": "13.27248469444271",
    "locationDisplayName": "Outpost (ehemaliges US-Soldatenkino), Taylorstraße, Dahlem, Steglitz-Zehlendorf, Berlin, 14195, Deutschland",
    "hasItems": true,
    "numberOfItems": 5046,
    "children": [],
    "level": -1
  },
  {
    "id": "5TUIDBWGTQL4C2V6USI4L3HLLBHF7KXY",
    "name": "Alpines Museum des DAV",
    "sector": "sec_06",
    "latitude": "48.1352065",
    "longitude": "11.5889999",
    "locationDisplayName": "Haus des Alpinismus, 5, Praterinsel, Knöbelblock, Bezirksteil Lehel, Stadtbezirk 01 Altstadt-Lehel, München, Oberbayern, Bayern, 80538, Deutschland",
    "hasItems": false,
    "numberOfItems": 0,
    "children": [],
    "level": -1
  },
  {
    "id": "JQADKD72P4O67OG7KERDZB4OQY4P5FRP",
    "name": "Alt-Arnstorf-Haus",
    "sector": "sec_06",
    "latitude": "48.5601245",
    "longitude": "12.8193407",
    "locationDisplayName": "3, Vorderer Berg, Arnstorf, Landkreis Rottal-Inn, Niederbayern, Bayern, 94424, Deutschland",
    "hasItems": false,
    "numberOfItems": 0,
    "children": [
      {
        "id": "UP63QLFLIUQHB2KXMOHBLHGVXBBLICRZ",
        "name": "Gollwitzer-Photoglasplattensammlung",
        "sector": "sec_01",
        "latitude": "48.56073",
        "longitude": "12.81708",
        "locationDisplayName": "8, Marktplatz, Arnstorf, Landkreis Rottal-Inn, Niederbayern, Bayern, 94424, Deutschland",
        "hasItems": false,
        "numberOfItems": 0,
        "children": [],
        "level": -1
      }
    ],
    "level": -1
  },
  {
    "id": "D7KISL6TVJVKW5EJYK5MERZCPLFY7MXL",
    "name": "Alt-Segeberger Bürgerhaus",
    "sector": "sec_06",
    "latitude": "53.9364096",
    "longitude": "10.3139819",
    "locationDisplayName": "Museum Alt-Segeberger Bürgerhaus, Lübecker Straße, Bad Segeberg, Kreis Segeberg, Schleswig-Holstein, 23795, Deutschland",
    "hasItems": false,
    "numberOfItems": 0,
    "children": [],
    "level": -1
  },
  {
    "id": "MD2DWGL7HPIUNRYZBFJU7BGIJJBIPWRJ",
    "name": "Alte Synagoge Erfurt",
    "sector": "sec_06",
    "latitude": "50.97913",
    "longitude": "11.02724",
    "locationDisplayName": "11, Allerheiligenstraße, Altstadt, Erfurt, Thüringen, 99084, Deutschland, Europa",
    "hasItems": false,
    "numberOfItems": 0,
    "children": [
      {
        "id": "2WJUNR6YRG6QXUUAQJUFRJTY7XUGBKFM",
        "name": "Mittelalterliche Mikwe",
        "sector": "sec_06",
        "latitude": "50.9791416",
        "longitude": "11.0298276",
        "locationDisplayName": "Goldhelm Schokoladenmanufaktur Werkstattcafé, 5, Kreuzgasse, Altstadt, Erfurt, Thüringen, 99084, Deutschland, Europa",
        "hasItems": false,
        "numberOfItems": 0,
        "children": [],
        "level": -1
      }
    ],
    "level": -1
  },
  {
    "id": "UIZR3MGJB7QFU56RQWGD6D47EKIZM75X",
    "name": "Alte Wissenschaftliche Bibliothek der Heilanstalt bei Konstanz",
    "sector": "sec_02",
    "latitude": "47.694374",
    "longitude": "9.1227664",
    "locationDisplayName": "Haus 11, Feursteinstraße, Reichenau-Waldsiedlung, Reichenau, Verwaltungsgemeinschaft Konstanz, Landkreis Konstanz, Regierungsbezirk Freiburg, Baden-Württemberg, 78479, Deutschland",
    "hasItems": false,
    "numberOfItems": 0,
    "children": [],
    "level": -1
  },
  {
    "id": "IZLLDPNSHEWXYLE7DJ6QLGB7QLWXBGEI",
    "name": "Altenberger Dom-Verein e.V.",
    "sector": "sec_01",
    "latitude": "50.9916088",
    "longitude": "7.1365729",
    "locationDisplayName": "276, Hauptstraße, Heidkamp, Bergisch Gladbach, Rheinisch-Bergischer Kreis, Regierungsbezirk Köln, Nordrhein-Westfalen, 51465, Deutschland",
    "hasItems": false,
    "numberOfItems": 0,
    "children": [],
    "level": -1
  },
  {
    "id": "ZFOGPJSXY5DK2FJCHTIAG6VC2JQSRCUI",
    "name": "Altertumskommission für Westfalen",
    "sector": "sec_04",
    "latitude": "51.9976168",
    "longitude": "7.634439",
    "locationDisplayName": "7, An den Speichern, Speicherstadt, Coerde, Münster-Nord, Münster, Nordrhein-Westfalen, 48157, Deutschland",
    "hasItems": false,
    "numberOfItems": 0,
    "children": [],
    "level": -1
  },
  {
    "id": "LVVLP6X3M7NEQ3M65JO6R35G5P3D3RUZ",
    "name": "Altfriesisches Haus",
    "sector": "sec_06",
    "latitude": "54.8955444",
    "longitude": "8.3724579",
    "locationDisplayName": "Altfriesisches Haus, 13, Am Kliff, Keitum, Sylt, Kreis Nordfriesland, Schleswig-Holstein, 25980, Deutschland",
    "hasItems": true,
    "numberOfItems": 301,
    "children": [],
    "level": -1
  },
  {
    "id": "7EESEDANEJLFF2VLDXI7R5H6A7B5L4KY",
    "name": "Altonaer Museum für Kunst und Kulturgeschichte",
    "sector": "sec_06",
    "latitude": "53.5489838",
    "longitude": "9.934634",
    "locationDisplayName": "Altonaer Museum, 23, Museumstraße, Altona-Altstadt, Altona, Hamburg, 22765, Deutschland",
    "hasItems": true,
    "numberOfItems": 1403,
    "children": [],
    "level": -1
  },
  {
    "id": "FWB4TLCMEZEF56ZQLM6OAGVGIW6PG2BT",
    "name": "Amrumer Museum und Windmühle",
    "sector": "sec_06",
    "latitude": "54.6517452",
    "longitude": "8.3542553",
    "locationDisplayName": "4, Ualjaat, Nebel, Föhr-Amrum, Kreis Nordfriesland, Schleswig-Holstein, 25946, Deutschland",
    "hasItems": false,
    "numberOfItems": 0,
    "children": [],
    "level": -1
  },
  {
    "id": "3DEFFLVGDUITTZIJNLFGIT3Z4VBVOJR3",
    "name": "Amt für Stadtentwicklung und Statistik Köln",
    "sector": "sec_02",
    "latitude": "50.9388071",
    "longitude": "6.9803966",
    "locationDisplayName": "Willy-Brandt-Platz, Deutz, Innenstadt, Köln, Regierungsbezirk Köln, Nordrhein-Westfalen, 50667-51149, Deutschland",
    "hasItems": false,
    "numberOfItems": 0,
    "children": [],
    "level": -1
  },
  {
    "id": "AUFZT4SS3R7DQXIAFS3KP3GT2OM77UZE",
    "name": "Amts- und Stadtarchiv Nortorf",
    "sector": "sec_01",
    "latitude": "54.17024",
    "longitude": "9.85471",
    "locationDisplayName": "Amt Nortofer Land, 6, Niedernstraße, Thienbüttel, Nortorf, Nortorfer Land, Kreis Rendsburg-Eckernförde, Schleswig-Holstein, 24589, Deutschland",
    "hasItems": false,
    "numberOfItems": 0,
    "children": [],
    "level": -1
  },
  {
    "id": "MWV6DJHIXQSEWLKMIR6D5QET7BE5UPES",
    "name": "Amts- und Stadtarchiv Ortrand",
    "sector": "sec_01",
    "latitude": "51.3763419",
    "longitude": "13.7575429",
    "locationDisplayName": "Rathaus Ortrand, 1, Straße der Einheit, Ortrand, Landkreis Oberspreewald-Lausitz, Brandenburg, 01990, Deutschland",
    "hasItems": false,
    "numberOfItems": 0,
    "children": [],
    "level": -1
  },
  {
    "id": "5Z2LR7TTT7XUEP2XHHSRJCPBXDDJBEFB",
    "name": "Amtsarchiv Achterwehr",
    "sector": "sec_01",
    "latitude": "54.31462",
    "longitude": "9.96734",
    "locationDisplayName": "Amt Achterwehr, 17, Inspektor-Weimar-Weg, Achterwehr, Kreis Rendsburg-Eckernförde, Schleswig-Holstein, 24239, Deutschland",
    "hasItems": false,
    "numberOfItems": 0,
    "children": [],
    "level": -1
  },
  {
    "id": "KGVSZNHUOSYHWXIQDNKOJCJGZ5XEGUQ3",
    "name": "Amtsarchiv Bordesholm",
    "sector": "sec_01",
    "latitude": "54.174422975881164",
    "longitude": "10.042659185180696",
    "locationDisplayName": "Hinrich Kiel, 3, Mühlenstraße, Bordesholm, Kreis Rendsburg-Eckernförde, Schleswig-Holstein, 24582, Deutschland",
    "hasItems": false,
    "numberOfItems": 0,
    "children": [],
    "level": -1
  },
  {
    "id": "XBZGLDGE3ICQYLITQTKQBA4NOQKI33YQ",
    "name": "Amtsarchiv Büchen",
    "sector": "sec_01",
    "latitude": "53.48026",
    "longitude": "10.61603",
    "locationDisplayName": "Polizeistation Büchen, 1, Amtsplatz, Büchen, Kreis Herzogtum Lauenburg, Schleswig-Holstein, 21514, Deutschland",
    "hasItems": false,
    "numberOfItems": 0,
    "children": [],
    "level": -1
  },
  {
    "id": "PBZQPX467A2CDJUBZVXBFNTM353JN2LD",
    "name": "Amtsarchiv Dahme (Mark)",
    "sector": "sec_01",
    "latitude": "51.8695336",
    "longitude": "13.428752",
    "locationDisplayName": "Rathaus Dahme/Mark, Hauptstraße, Dahme/Mark, Landkreis Teltow-Fläming, Brandenburg, 15936, Deutschland",
    "hasItems": false,
    "numberOfItems": 0,
    "children": [],
    "level": -1
  },
  {
    "id": "5XXG4FE2Z77JNZ6YCRAKZMJ5DBW4HNEQ",
    "name": "Amtsarchiv der Amtsverwaltung Warnow-West",
    "sector": "sec_01",
    "latitude": "54.05555",
    "longitude": "12.05246",
    "locationDisplayName": "Amt Warnow-West, 1a, Schulweg, Kritzmow, Warnow-West, Landkreis Rostock, Mecklenburg-Vorpommern, 18198, Deutschland",
    "hasItems": false,
    "numberOfItems": 0,
    "children": [],
    "level": -1
  },
  {
    "id": "BOP32S6W5LUZYKNOXXSKEKFPFGGPFJ2O",
    "name": "Amtsarchiv Elsterland",
    "sector": "sec_01",
    "latitude": "51.59943",
    "longitude": "13.49568",
    "locationDisplayName": "2a, Kindergartenstraße, Schönborn, Elsterland, Landkreis Elbe-Elster, Brandenburg, 03253, Deutschland",
    "hasItems": false,
    "numberOfItems": 0,
    "children": [],
    "level": -1
  },
  {
    "id": "ECJHDZEHKNUUN6TURY72AIINXP7KIEPV",
    "name": "Amtsarchiv Falkenberg-Höhe",
    "sector": "sec_01",
    "latitude": "52.804889",
    "longitude": "13.9585759",
    "locationDisplayName": "Cafe und Eis, Karl-Marx-Straße, Falkenberg, Falkenberg-Höhe, Landkreis Märkisch-Oderland, Brandenburg, 16259, Deutschland",
    "hasItems": false,
    "numberOfItems": 0,
    "children": [],
    "level": -1
  },
  {
    "id": "7UOUV6ELMMBJATAUN4ZWCGOD5WKGOYHL",
    "name": "Amtsarchiv Flintbek",
    "sector": "sec_01",
    "latitude": "54.242594745377176",
    "longitude": "10.064121854492214",
    "locationDisplayName": "NordBrief, Kätnerskamp, Eiderheim, Flintbek, Kreis Rendsburg-Eckernförde, Schleswig-Holstein, 24220, Deutschland",
    "hasItems": false,
    "numberOfItems": 0,
    "children": [],
    "level": -1
  },
  {
    "id": "HAV36DVTRMY4JA6SZUOJXHRVXAYQJGK3",
    "name": "Amtsarchiv Großräschen",
    "sector": "sec_01",
    "latitude": "51.5591288",
    "longitude": "13.8854426",
    "locationDisplayName": "Sallgaster Straße, Herrnmühle, Schipkau, Landkreis Oberspreewald-Lausitz, Brandenburg, 01994, Deutschland",
    "hasItems": false,
    "numberOfItems": 0,
    "children": [],
    "level": -1
  },
  {
    "id": "RXJO5GBYQK2WCE2G5GCJYW4CFGCKA4XM",
    "name": "Amtsarchiv Hohe Elbgeest",
    "sector": "sec_01",
    "latitude": "53.48964113316823",
    "longitude": "10.36208150793459",
    "locationDisplayName": "Amt Hohe Elbgeest, 1, Christa-Höppner-Platz, Dassendorf, Hohe Elbgeest, Kreis Herzogtum Lauenburg, Schleswig-Holstein, 21521, Deutschland",
    "hasItems": false,
    "numberOfItems": 0,
    "children": [],
    "level": -1
  },
  {
    "id": "T77B7EE2KJO4F5YPL26ONNK544ZWKGZ2",
    "name": "Amtsarchiv Hüttener Berge",
    "sector": "sec_01",
    "latitude": "54.40293",
    "longitude": "9.76622",
    "locationDisplayName": "Amt Hüttener Berge, 8, Mühlenstraße, Eksal, Groß Wittensee, Hüttener Berge, Kreis Rendsburg-Eckernförde, Schleswig-Holstein, 24361, Deutschland",
    "hasItems": false,
    "numberOfItems": 0,
    "children": [],
    "level": -1
  },
  {
    "id": "TNRP2F6HFC4NORKFQJUN77J4OEQMH3KA",
    "name": "Amtsarchiv Joachimsthal (Schorfheide)",
    "sector": "sec_01",
    "latitude": "52.978149",
    "longitude": "13.7425402",
    "locationDisplayName": "Joachimsplatz, Joachimsthal, Joachimsthal (Schorfheide), Landkreis Barnim, Brandenburg, 16247, Deutschland",
    "hasItems": false,
    "numberOfItems": 0,
    "children": [],
    "level": -1
  },
  {
    "id": "U7HAQFHV3GKM3CY67CLXR7KVLN4VAJCD",
    "name": "Amtsarchiv Michendorf",
    "sector": "sec_01",
    "latitude": "52.3133028",
    "longitude": "13.030355",
    "locationDisplayName": "Gemeinde Michendorf, 33, Potsdamer Straße, Michendorf, Landkreis Potsdam-Mittelmark, Brandenburg, 14552, Deutschland",
    "hasItems": false,
    "numberOfItems": 0,
    "children": [],
    "level": -1
  },
  {
    "id": "TPG4PQU3VGKWX2GAWX7EBFV4Z5R4I2LE",
    "name": "Amtsarchiv Molfsee",
    "sector": "sec_01",
    "latitude": "54.28180281910811",
    "longitude": "10.079088894720485",
    "locationDisplayName": "Kieler Volksbank, 2, Mielkendorfer Weg, Schulensee, Molfsee, Kreis Rendsburg-Eckernförde, Schleswig-Holstein, 24113, Deutschland",
    "hasItems": false,
    "numberOfItems": 0,
    "children": [],
    "level": -1
  },
  {
    "id": "MXMLRDZZBUWMEZLQPLKHGST4C4P6JNJ2",
    "name": "Amtsarchiv Neustadt (Dosse)",
    "sector": "sec_01",
    "latitude": "52.85216",
    "longitude": "12.44985",
    "locationDisplayName": "Amt Neustadt, Bahnhofstraße, Neustadt (Dosse), Landkreis Ostprignitz-Ruppin, Brandenburg, 16845, Deutschland",
    "hasItems": false,
    "numberOfItems": 0,
    "children": [],
    "level": -1
  },
  {
    "id": "MPBUVSN47NWT7DVAVBHLFDXX36MO5RTB",
    "name": "Amtsarchiv Peitz",
    "sector": "sec_01",
    "latitude": "51.85764",
    "longitude": "14.41508",
    "locationDisplayName": "Rehnkomplex, Schulstraße, Luisenruh, Peitz, Amt Peitz, Landkreis Spree-Neiße, Brandenburg, 03185, Deutschland",
    "hasItems": false,
    "numberOfItems": 0,
    "children": [],
    "level": -1
  },
  {
    "id": "XURGU7QVYBL6BE3DGGVILE4JSZWF2K7M",
    "name": "Amtsarchiv Siek",
    "sector": "sec_01",
    "latitude": "53.63545337405886",
    "longitude": "10.297539511045102",
    "locationDisplayName": "Amtsverwaltung Siek, Hoisdorfer Weg, Siek, Kreis Stormarn, Schleswig-Holstein, 22962, Deutschland",
    "hasItems": false,
    "numberOfItems": 0,
    "children": [],
    "level": -1
  },
  {
    "id": "7CT4VVVHXJWUT5NEBB3VHFRTE6LS5WKH",
    "name": "Amtsarchiv Trittau",
    "sector": "sec_01",
    "latitude": "53.60851",
    "longitude": "10.40863",
    "locationDisplayName": "Gemeinde Trittau, 5, Europaplatz, Trittau, Kreis Stormarn, Schleswig-Holstein, 22946, Deutschland",
    "hasItems": false,
    "numberOfItems": 0,
    "children": [],
    "level": -1
  },
  {
    "id": "24GXBW47JHIAX5IDZGS6UCLPQIH2QMEH",
    "name": "Amtsarchiv Wriezen",
    "sector": "sec_01",
    "latitude": "52.72119",
    "longitude": "14.13426",
    "locationDisplayName": "Wriezen, Stadtverwaltung, Freienwalder Straße, Wriezen, Landkreis Märkisch-Oderland, Brandenburg, 16269, Deutschland",
    "hasItems": false,
    "numberOfItems": 0,
    "children": [],
    "level": -1
  },
  {
    "id": "SC4YSFVK3IAGVIMW6QEGCAXR4QV6US4D",
    "name": "Angelner Dampfeisenbahn",
    "sector": "sec_06",
    "latitude": "54.84283",
    "longitude": "9.54655",
    "locationDisplayName": "Schwennaustraße, Sandwig, Glücksburg, Kreis Schleswig-Flensburg, Schleswig-Holstein, 24960, Deutschland",
    "hasItems": false,
    "numberOfItems": 0,
    "children": [],
    "level": -1
  },
  {
    "id": "PWUK5QTD3GS74HWNTHZT44URS4HJWYNU",
    "name": "Angermuseum Erfurt",
    "sector": "sec_06",
    "latitude": "50.9757966",
    "longitude": "11.0341295",
    "locationDisplayName": "Angermuseum, Anger, Altstadt, Erfurt, Thüringen, 99084, Deutschland, Europa",
    "hasItems": false,
    "numberOfItems": 0,
    "children": [],
    "level": -1
  },
  {
    "id": "QXIF2XRYDEWHQYBA4DSH5NUS3Q6DTESY",
    "name": "Angewandte Medizintechnik",
    "sector": "sec_04",
    "latitude": "50.7758823",
    "longitude": "6.047667",
    "locationDisplayName": "Helmholtz-Institut für Biomedizinische Technik, 20, Pauwelsstraße, Melaten, Laurensberg, Aachen, Städteregion Aachen, Regierungsbezirk Köln, Nordrhein-Westfalen, 52074, Deutschland",
    "hasItems": false,
    "numberOfItems": 0,
    "children": [],
    "level": -1
  },
  {
    "id": "W4KFMZWKY2PQRE7NUF75J437A2ULDHPQ",
    "name": "Antifaschistisches Pressearchiv und Bildungszentrum Berlin",
    "sector": "sec_01",
    "latitude": "52.49741",
    "longitude": "13.42848",
    "locationDisplayName": "10, Lausitzer Straße, Graefekiez, Kreuzberg, Friedrichshain-Kreuzberg, Berlin, 10999, Deutschland",
    "hasItems": false,
    "numberOfItems": 0,
    "children": [],
    "level": -1
  },
  {
    "id": "UEBCZLRRW7V5QFHGZBRO57CRLJUP6D2V",
    "name": "Antifaschistisches Pressearchiv und Bildungszentrum Berlin e.V.",
    "sector": "sec_01",
    "latitude": "52.4974034",
    "longitude": "13.4283149",
    "locationDisplayName": "10, Lausitzer Straße, Luisenstadt, Kreuzberg, Friedrichshain-Kreuzberg, Berlin, 10999, Deutschland",
    "hasItems": false,
    "numberOfItems": 0,
    "children": [],
    "level": -1
  },
  {
    "id": "LL4FOGI5PB4QEN5X4WVXGXBRWHRGCQAN",
    "name": "Antikensammlung in der Kunsthalle zu Kiel",
    "sector": "sec_06",
    "latitude": "54.3354051",
    "longitude": "10.1521126",
    "locationDisplayName": "Landeshaus, 70, Düsternbrooker Weg, Düsternbrook, Kiel, Schleswig-Holstein, 24105, Deutschland",
    "hasItems": false,
    "numberOfItems": 0,
    "children": [],
    "level": -1
  },
  {
    "id": "VIL5WTFLO7SSO2CO4TU7C4XBSN3KD3ZV",
    "name": "Antikriegshaus Sievershausen",
    "sector": "sec_07",
    "latitude": "52.37426",
    "longitude": "10.12984",
    "locationDisplayName": "Antikriegshaus, Kirchweg, Lehrte, Region Hannover, Niedersachsen, 31275, Deutschland",
    "hasItems": false,
    "numberOfItems": 0,
    "children": [],
    "level": -1
  },
  {
    "id": "ZDOG7YVIUXSRWDZPDN2HD34WK22MIB7U",
    "name": "Aquarius Wassermuseum",
    "sector": "sec_06",
    "latitude": "51.4427675",
    "longitude": "6.8571952",
    "locationDisplayName": "Ruhrperlen-Haltestelle Aquarius Wassermuseum, Burgstraße, Styrum, Rechtsruhr-Nord, Mülheim an der Ruhr, Regierungsbezirk Düsseldorf, Nordrhein-Westfalen, 45476, Deutschland",
    "hasItems": false,
    "numberOfItems": 0,
    "children": [],
    "level": -1
  },
  {
    "id": "UYUQX7NJYTPJKK2QUTCMXGALFXBKYZ5S",
    "name": "Arbeiter-Samariter-Bund Deutschland e.V., Archiv",
    "sector": "sec_01",
    "latitude": "50.9190764",
    "longitude": "6.9215907",
    "locationDisplayName": "142, Sülzburgstraße, Sülz, Lindenthal, Köln, Regierungsbezirk Köln, Nordrhein-Westfalen, 50937, Deutschland",
    "hasItems": false,
    "numberOfItems": 0,
    "children": [],
    "level": -1
  },
  {
    "id": "Q6TPUE6MBQQYTL7IQFS4IECUXLRI7A4V",
    "name": "Arbeitskreis selbständiger Kultur-Institute",
    "sector": "sec_07",
    "latitude": "50.7284518",
    "longitude": "7.1025999",
    "locationDisplayName": "34, Prinz-Albert-Straße, Südstadt, Stadtbezirk Bonn, Bonn, Regierungsbezirk Köln, Nordrhein-Westfalen, 53113, Deutschland",
    "hasItems": false,
    "numberOfItems": 0,
    "children": [],
    "level": -1
  },
  {
    "id": "LRV3GRBJFAHST2VSSY5MGSZ4DNOW72K7",
    "name": "Archäologisch-Ökologisches Zentrum Albersdorf (AÖZA gGmbH)",
    "sector": "sec_06",
    "latitude": "54.14613",
    "longitude": "9.28817",
    "locationDisplayName": "23, Bahnhofstraße, Albersdorf, Mitteldithmarschen, Kreis Dithmarschen, Schleswig-Holstein, 25767, Deutschland",
    "hasItems": false,
    "numberOfItems": 0,
    "children": [],
    "level": -1
  },
  {
    "id": "Q7PBEU6FNFRLMTS2CPQKBMYZUU2LAKNQ",
    "name": "Archäologische Schausammlung des VVFN e.V. Nidderau (Archiv)",
    "sector": "sec_01",
    "latitude": "50.2381022",
    "longitude": "8.8668283",
    "locationDisplayName": "3, Mittelburg, Heldenbergen, Nidderau, Main-Kinzig-Kreis, Hessen, 61130, Deutschland",
    "hasItems": false,
    "numberOfItems": 0,
    "children": [],
    "level": -1
  },
  {
    "id": "NL3QRS6SOQEREEZLCBEMETQ23QZORW7R",
    "name": "Archäologische Staatssammlung",
    "sector": "sec_06",
    "latitude": "48.14419119999999",
    "longitude": "11.591351400000008",
    "locationDisplayName": "Archäologische Staatssammlung, 2, Lerchenfeldstraße, Bezirksteil Englischer Garten, Stadtbezirk 01 Altstadt-Lehel, München, Oberbayern, Bayern, 80538, Deutschland",
    "hasItems": false,
    "numberOfItems": 0,
    "children": [
      {
        "id": "TMRKKZRJFUCA57Y6PZZWR6DZ5T7YMENC",
        "name": "Archäologie-Museum im Fränkischen Freilandmuseum Bad Windsheim",
        "sector": "sec_06",
        "latitude": "49.49547",
        "longitude": "10.41582",
        "locationDisplayName": "Stahlhaus aus Nerreth, 112, Westheimer Straße, Külsheim, Bad Windsheim, Neustadt an der Aisch-Bad Windsheim, Mittelfranken, Bayern, 91438, Deutschland",
        "hasItems": false,
        "numberOfItems": 0,
        "children": [],
        "level": -1
      },
      {
        "id": "PCEOEDUS224CGOYBBK5YGCEX6QUSDMFL",
        "name": "Archäologie-Museum Oberfranken im Pfalzmuseum Forchheim",
        "sector": "sec_06",
        "latitude": "49.72024",
        "longitude": "11.0551697",
        "locationDisplayName": "Kaiserpfalz, Sattlertorstraße, Serlbach, Forchheim, Landkreis Forchheim, Oberfranken, Bayern, 91301, Deutschland",
        "hasItems": false,
        "numberOfItems": 0,
        "children": [],
        "level": -1
      },
      {
        "id": "2XB5VNVU3LM4XIPCPCWG6JGC7Q2BXQRE",
        "name": "Archäologie-Museum Schloss Neuburg an der Donau",
        "sector": "sec_06",
        "latitude": "48.73698",
        "longitude": "11.18110009999998",
        "locationDisplayName": "Schloss Neuburg, Residenzstraße, Hesselohe, Neuburg an der Donau, Landkreis Neuburg-Schrobenhausen, Oberbayern, Bayern, 86633, Deutschland",
        "hasItems": false,
        "numberOfItems": 0,
        "children": [],
        "level": -1
      },
      {
        "id": "LGYED6DKPIMIJQS4EM53L2S37AIGGFUN",
        "name": "Archäologisches Museum Bad Königshofen im Grabfeld",
        "sector": "sec_06",
        "latitude": "50.2996943",
        "longitude": "10.4686013",
        "locationDisplayName": "Archäologisches Museum, 9, Martin-Reinhard-Straße, Bad Königshofen, Ipthausen, Bad Königshofen i.Grabfeld, Landkreis Rhön-Grabfeld, Unterfranken, Bayern, 97631, Deutschland, Europa",
        "hasItems": false,
        "numberOfItems": 0,
        "children": [],
        "level": -1
      },
      {
        "id": "47LQP3K4OEHOVJEQCSD3Q4EOQI7U7ITD",
        "name": "Archäologisches Museum der Oberpfalz Amberg",
        "sector": "sec_06",
        "latitude": "49.44397",
        "longitude": "11.85951",
        "locationDisplayName": "Stadtmuseum Amberg, 18, Zeughausstraße, Eisberg, Luitpoldhöhe, Amberg, Oberpfalz, Bayern, 92224, Deutschland",
        "hasItems": false,
        "numberOfItems": 0,
        "children": [],
        "level": -1
      },
      {
        "id": "4C5TQHE6ULPK2OBRSMZ5AN4FGOV4PFMG",
        "name": "Burgmuseum Grünwald",
        "sector": "sec_06",
        "latitude": "48.04286",
        "longitude": "11.51941",
        "locationDisplayName": "Burg Grünwald, Zeillerstraße, Grünwald, Landkreis München, Oberbayern, Bayern, 82031, Deutschland",
        "hasItems": false,
        "numberOfItems": 0,
        "children": [],
        "level": -1
      },
      {
        "id": "S6F7MNLPZBOKWJPI6MLEXQGQNHS57RSM",
        "name": "kelten römer museum manching",
        "sector": "sec_06",
        "latitude": "48.71278",
        "longitude": "11.49251",
        "locationDisplayName": "Kelten- und Römermuseum, 2, Im Erlet, Manching, Landkreis Pfaffenhofen an der Ilm, Oberbayern, Bayern, 85077, Deutschland",
        "hasItems": false,
        "numberOfItems": 0,
        "children": [],
        "level": -1
      },
      {
        "id": "277572BFPGVCXI545ZKQPZ5RAN4JICQV",
        "name": "Niederbayerisches Archäologie-Museum Landau",
        "sector": "sec_06",
        "latitude": "48.6686682",
        "longitude": "12.6903315",
        "locationDisplayName": "Glassaal, Schloßweg, Schauereck, Landau an der Isar, Landkreis Dingolfing-Landau, Niederbayern, Bayern, 94405, Deutschland",
        "hasItems": false,
        "numberOfItems": 0,
        "children": [],
        "level": -1
      },
      {
        "id": "BOJ53K6VTLCTOKHY5GOF5WSSNZPKMIXS",
        "name": "Römermuseum Weißenburg",
        "sector": "sec_06",
        "latitude": "49.0315392",
        "longitude": "10.9706649",
        "locationDisplayName": "Reichstadtmuseum, Martin-Luther-Platz, Holzingen, Weißenburg i. Bay., Landkreis Weißenburg-Gunzenhausen, Mittelfranken, Bayern, 91781, Deutschland",
        "hasItems": false,
        "numberOfItems": 0,
        "children": [],
        "level": -1
      },
      {
        "id": "QWAXJN3WBE6OLGNU3H5WMC6MEO7OX2YE",
        "name": "Südschwäbisches Archäologiemuseum Mindelheim",
        "sector": "sec_06",
        "latitude": "48.0461",
        "longitude": "10.48528",
        "locationDisplayName": "4, Hermelestraße, Mindelheim, Gernstall, Mindelheim, Landkreis Unterallgäu, Schwaben, Bayern, 87719, Deutschland",
        "hasItems": false,
        "numberOfItems": 0,
        "children": [],
        "level": -1
      },
      {
        "id": "FXLBHNLPU2Q5EL5SVH6HVDVJE22ENRIO",
        "name": "Wittelsbacher Museum Aichach",
        "sector": "sec_06",
        "latitude": "48.4577035",
        "longitude": "11.1359857",
        "locationDisplayName": "4d, Schulstraße, Aichach, Landkreis Aichach-Friedberg, Schwaben, Bayern, 86551, Deutschland",
        "hasItems": false,
        "numberOfItems": 0,
        "children": [],
        "level": -1
      }
    ],
    "level": -1
  },
  {
    "id": "DB6W2OAKUINKTRZTKOO7RPIMQSQN2HT4",
    "name": "Archäologisches Landesmuseum Baden-Württemberg (Bibliothek)",
    "sector": "sec_06",
    "latitude": "47.6684842",
    "longitude": "9.178432",
    "locationDisplayName": "Stadtarchiv Konstanz, 5, Benediktinerplatz, Konstanz-Petershausen-West, Konstanz, Verwaltungsgemeinschaft Konstanz, Landkreis Konstanz, Regierungsbezirk Freiburg, Baden-Württemberg, 78467, Deutschland",
    "hasItems": false,
    "numberOfItems": 0,
    "children": [],
    "level": -1
  },
  {
    "id": "T6SDUOSRRVEPVF6SPP6RAICGOLV427R3",
    "name": "Archäologisches Museum Hamburg | Helms-Museum",
    "sector": "sec_06",
    "latitude": "53.4591321",
    "longitude": "9.9772805",
    "locationDisplayName": "Archäologisches Museum Hamburg (ehm. Helms-Museum) / Haupthaus, 2, Museumsplatz, Harburg, Hamburg, 21073, Deutschland",
    "hasItems": true,
    "numberOfItems": 3869,
    "children": [],
    "level": -1
  },
  {
    "id": "H7ZUC5QPXZ4FSH7A7JSQC5RNDYWAHSJY",
    "name": "Archiv A. W. Faber-Castell",
    "sector": "sec_01",
    "latitude": "49.4165724",
    "longitude": "11.019262",
    "locationDisplayName": "Nürnberger Straße, Stein, Landkreis Fürth, Mittelfranken, Bayern, 90547, Deutschland",
    "hasItems": false,
    "numberOfItems": 0,
    "children": [],
    "level": -1
  },
  {
    "id": "2YHQOUWBYTTHQIYMFC3QXC4ZTCQAGKB4",
    "name": "Archiv Bild und Text der Stuttgarter Zeitung und der Stuttgarter Nachrichten",
    "sector": "sec_01",
    "latitude": "48.71975",
    "longitude": "9.17088",
    "locationDisplayName": "Plieninger Straße, Sternhäule, Untere Körschmühle, Möhringen, Stuttgart, Regierungsbezirk Stuttgart, Baden-Württemberg, 70567, Deutschland",
    "hasItems": false,
    "numberOfItems": 0,
    "children": [],
    "level": -1
  },
  {
    "id": "LKUPAQOFS7ORN47RGPLGSHVWGK72CNQP",
    "name": "Archiv Charles Koechlin",
    "sector": "sec_01",
    "latitude": "51.3283116",
    "longitude": "9.5386806",
    "locationDisplayName": "3, Sängerweg, Bossental, Wolfsanger-Hasenhecke, Kassel, Regierungsbezirk Kassel, Hessen, 34125, Deutschland, Europa",
    "hasItems": false,
    "numberOfItems": 0,
    "children": [],
    "level": -1
  },
  {
    "id": "LY3O3MDXOWS7LJY3GOWB3Q7HPLJZD5WG",
    "name": "Archiv DENKtRÄUME/hamburger frauenbibliothek",
    "sector": "sec_01",
    "latitude": "53.5660085",
    "longitude": "9.9808151",
    "locationDisplayName": "Sauerberghof, Grindelallee, Rotherbaum, Eimsbüttel, Hamburg, 20146, Deutschland",
    "hasItems": false,
    "numberOfItems": 0,
    "children": [],
    "level": -1
  },
  {
    "id": "FXQRWH6FA6UROECSI6YMMSUXXOZ3Z3X4",
    "name": "Archiv der Aachener Zeitung",
    "sector": "sec_01",
    "latitude": "50.77992",
    "longitude": "6.12472",
    "locationDisplayName": "M. Brimberg, 1, Dresdener Straße, Viktoriaviertel, Forst, Aachen-Mitte, Aachen, Städteregion Aachen, Regierungsbezirk Köln, Nordrhein-Westfalen, 52068, Deutschland",
    "hasItems": false,
    "numberOfItems": 0,
    "children": [],
    "level": -1
  },
  {
    "id": "M5Q7PJPOFKYFQSMO3KFG53AOERSAOFSF",
    "name": "Archiv der Abtei Maria Laach",
    "sector": "sec_01",
    "latitude": "50.25",
    "longitude": "6.6666667",
    "locationDisplayName": "Im Wiesental, Bewingen, Gerolstein, Landkreis Vulkaneifel, Rheinland-Pfalz, 54568, Deutschland",
    "hasItems": false,
    "numberOfItems": 0,
    "children": [],
    "level": -1
  },
  {
    "id": "E6EWIW5FUK2MQDO2XCEMPQZZLY5TAB46",
    "name": "Archiv der Aktien-Gesellschaft der Dillinger Hüttenwerke",
    "sector": "sec_01",
    "latitude": "49.35499",
    "longitude": "6.73152",
    "locationDisplayName": "Caritas-Krankenhaus Dillingen, Dr.-Deilmann-Platz, Dillingen, Dillingen/Saar, Landkreis Saarlouis, Saarland, 66763, Deutschland",
    "hasItems": false,
    "numberOfItems": 0,
    "children": [],
    "level": -1
  },
  {
    "id": "KS3TSUMAP3TWFWGK6TFMM7AUSXLVPO2A",
    "name": "Archiv der Arbeiterjugendbewegung",
    "sector": "sec_01",
    "latitude": "51.65771",
    "longitude": "7.24185",
    "locationDisplayName": "Salvador-Allende-Haus, 77, Haardgrenzweg, Oer, Oer-Erkenschwick, Kreis Recklinghausen, Regierungsbezirk Münster, Nordrhein-Westfalen, 45739, Deutschland",
    "hasItems": false,
    "numberOfItems": 0,
    "children": [],
    "level": -1
  },
  {
    "id": "ZA4W3VV3WNEHJC46TB7B7VJ62RSYGOIN",
    "name": "Archiv der Bauer Media Group",
    "sector": "sec_01",
    "latitude": "53.5480733",
    "longitude": "10.00364",
    "locationDisplayName": "11, Burchardstraße, Hamburg-Altstadt, Hamburg-Mitte, Hamburg, 20095, Deutschland",
    "hasItems": false,
    "numberOfItems": 0,
    "children": [],
    "level": -1
  },
  {
    "id": "4ZBZ3GG4NSZW5S6S7SQCVLEGZ7DWPI75",
    "name": "Archiv der Bayerischen Akademie der Schönen Künste",
    "sector": "sec_01",
    "latitude": "48.14044",
    "longitude": "11.57754",
    "locationDisplayName": "Chloé, Residenzstraße, Bezirksteil Graggenau, Stadtbezirk 01 Altstadt-Lehel, München, Oberbayern, Bayern, 80539, Deutschland",
    "hasItems": false,
    "numberOfItems": 0,
    "children": [],
    "level": -1
  },
  {
    "id": "LW2AZEUQWFZU6N6DFONZFWOGWQCXZNH6",
    "name": "Archiv der Bayerischen Landeszentrale für Neue Medien",
    "sector": "sec_01",
    "latitude": "48.10015",
    "longitude": "11.63715",
    "locationDisplayName": "Bayerische Landeszentrale für neue Medien (BLM), 27, Heinrich-Lübke-Straße, Bezirksteil Neuperlach, Stadtbezirk 16 Ramersdorf - Perlach, München, Oberbayern, Bayern, 81737, Deutschland",
    "hasItems": false,
    "numberOfItems": 0,
    "children": [],
    "level": -1
  },
  {
    "id": "BG3SVBA4WIGDB6PY3TXFYRIIDNJGTQT5",
    "name": "Archiv der Benediktinerabtei Münsterschwarzach",
    "sector": "sec_01",
    "latitude": "49.80381",
    "longitude": "10.23008",
    "locationDisplayName": "Abteiverwaltung, Schweinfurter Straße, Schwarzach am Main, Landkreis Kitzingen, Unterfranken, Bayern, 97359, Deutschland",
    "hasItems": false,
    "numberOfItems": 0,
    "children": [],
    "level": -1
  },
  {
    "id": "2Q3YHZMRKP3KLPGMXRJNOMSVAONV5C4S",
    "name": "Archiv der Benediktinerabtei Ottobeuren",
    "sector": "sec_01",
    "latitude": "47.94096",
    "longitude": "10.29724",
    "locationDisplayName": "Benediktinerabtei Ottobeuren, Sebastian-Kneipp-Straße, Böglins, Schellenberg, Ottobeuren, Landkreis Unterallgäu, Schwaben, Bayern, 87724, Deutschland",
    "hasItems": false,
    "numberOfItems": 0,
    "children": [],
    "level": -1
  },
  {
    "id": "5PZUIWUUEUC7ZVXIIENLSAGHQ74IGHX4",
    "name": "Archiv der Berliner Verkehrsbetriebe (BVG)",
    "sector": "sec_01",
    "latitude": "52.5518402",
    "longitude": "13.3743878",
    "locationDisplayName": "Café Pförtner, 8-11, Uferstraße, Gesundbrunnen, Mitte, Berlin, 13357, Deutschland",
    "hasItems": false,
    "numberOfItems": 0,
    "children": [],
    "level": -1
  },
  {
    "id": "X5HW7O2UXKW6FSH4IC5VSRTPYFO6ZHJO",
    "name": "Archiv der Börse München",
    "sector": "sec_01",
    "latitude": "48.14297",
    "longitude": "11.55448",
    "locationDisplayName": "4, Hopfenstraße, Bezirksteil Marsfeld, Maxvorstadt, München, Oberbayern, Bayern, 80335, Deutschland",
    "hasItems": false,
    "numberOfItems": 0,
    "children": [],
    "level": -1
  },
  {
    "id": "BJIUD4P23SOMJ5VYCA5GFVR6IRWFGDY6",
    "name": "Archiv der Brandenburgischen Technischen Universität Cottbus-Senftenberg",
    "sector": "sec_01",
    "latitude": "51.7673712",
    "longitude": "14.3239778",
    "locationDisplayName": "Lehrgebäude 2B, Konrad-Wachsmann-Allee, Ströbitz, Cottbus, Brandenburg, 03046, Deutschland",
    "hasItems": false,
    "numberOfItems": 0,
    "children": [],
    "level": -1
  },
  {
    "id": "S3ZAYEMFCXU3IOAJZ3IOQBQC4H2SE7NJ",
    "name": "Archiv der Bremischen Bürgerschaft - Bibliothek",
    "sector": "sec_01",
    "latitude": "53.075887",
    "longitude": "8.807312",
    "locationDisplayName": "Roland, Am Markt, Altstadt, Mitte, Stadtbezirk Bremen-Mitte, Bremen, 28195, Deutschland",
    "hasItems": false,
    "numberOfItems": 0,
    "children": [],
    "level": -1
  },
  {
    "id": "LZHDLJVLXMO6YHN2ZUOT5ABQS2TZK4YV",
    "name": "Archiv der Brüder-Unität",
    "sector": "sec_01",
    "latitude": "51.0138333",
    "longitude": "14.7457178",
    "locationDisplayName": "22, Zittauer Straße, Herrnhut, Landkreis Görlitz, Sachsen, 02747, Deutschland",
    "hasItems": false,
    "numberOfItems": 0,
    "children": [],
    "level": -1
  },
  {
    "id": "FRXII2SSOGRXFLT7IDM2RDURHUADVYKE",
    "name": "Archiv der Bundeswehr",
    "sector": "sec_01",
    "latitude": "52.5226041",
    "longitude": "13.3776123",
    "locationDisplayName": "Redaktion der Bundeswehr, 52, Reinhardtstraße, Mitte, Berlin, 10117, Deutschland",
    "hasItems": false,
    "numberOfItems": 0,
    "children": [],
    "level": -1
  },
  {
    "id": "3DA75I335UFSTKG5I5S3XWK3HR24FRMP",
    "name": "Archiv der Burda Publishing Center GmbH",
    "sector": "sec_01",
    "latitude": "48.150069",
    "longitude": "11.6226304",
    "locationDisplayName": "23, Arabellastraße, Bezirksteil Parkstadt, Stadtbezirk 13 Bogenhausen, München, Oberbayern, Bayern, 81925, Deutschland",
    "hasItems": false,
    "numberOfItems": 0,
    "children": [],
    "level": -1
  },
  {
    "id": "YPJNRXXOYF4ZFRPRFE3A4RRLVPZUY7H4",
    "name": "Archiv der D.I.W.A. Frauenforschungsstelle Münster e.V.",
    "sector": "sec_01",
    "latitude": "51.9576431",
    "longitude": "7.633107",
    "locationDisplayName": "12, Achtermannstraße, Bahnhof, Innenstadtring, Münster-Mitte, Münster, Regierungsbezirk Münster, Nordrhein-Westfalen, 48143, Deutschland",
    "hasItems": false,
    "numberOfItems": 0,
    "children": [],
    "level": -1
  },
  {
    "id": "YLKCM27LFZ4PEXBOYRF5UGZZCOZ7V7PY",
    "name": "Archiv der Dalli-Werke GmbH & Co. KG",
    "sector": "sec_01",
    "latitude": "50.7611856",
    "longitude": "6.2312788",
    "locationDisplayName": "Dalli Werksverkauf, Finkensiefstraße, Liester, Stolberg, Städteregion Aachen, Regierungsbezirk Köln, Nordrhein-Westfalen, 52223, Deutschland",
    "hasItems": false,
    "numberOfItems": 0,
    "children": [],
    "level": -1
  },
  {
    "id": "D7FR6EAV3SNPIRTCTIGLU6MBRBA6IZ2T",
    "name": "Archiv der Deutschen Augustiner",
    "sector": "sec_01",
    "latitude": "49.7962385",
    "longitude": "9.9314324",
    "locationDisplayName": "4, Dominikanerplatz, Würzburg Altstadt, Würzburg, Unterfranken, Bayern, 97070, Deutschland",
    "hasItems": false,
    "numberOfItems": 0,
    "children": [],
    "level": -1
  },
  {
    "id": "JLINYRNYEJ3YMAJPM3S3UUHXAKIKVBR5",
    "name": "Archiv der deutschen Jugendbewegung",
    "sector": "sec_01",
    "latitude": "51.3321054",
    "longitude": "9.9144857",
    "locationDisplayName": "Am Siesterbach, Witzenhausen, Werra-Meißner-Kreis, Regierungsbezirk Kassel, Hessen, 37214, Deutschland",
    "hasItems": false,
    "numberOfItems": 0,
    "children": [],
    "level": -1
  },
  {
    "id": "CHFOCIPOM3OLRPGBVRINLB4MHOPWT2LJ",
    "name": "Archiv der Deutschen Ordensobernkonferenz",
    "sector": "sec_01",
    "latitude": "50.7327881",
    "longitude": "7.0873242999999775",
    "locationDisplayName": "7, Wittelsbacherring, Weststadt, Stadtbezirk Bonn, Bonn, Regierungsbezirk Köln, Nordrhein-Westfalen, 53115, Deutschland",
    "hasItems": false,
    "numberOfItems": 0,
    "children": [],
    "level": -1
  },
  {
    "id": "47C5V3MEQ5AFEOZDUUTQHGFNJ5AMG3BO",
    "name": "Archiv der Deutschen Provinz der Jesuiten",
    "sector": "sec_01",
    "latitude": "48.14882",
    "longitude": "11.58292",
    "locationDisplayName": "Hochschule für Philosophie, 31a, Kaulbachstraße, Bezirksteil Schönfeldvorstadt, Maxvorstadt, München, Oberbayern, Bayern, 80539, Deutschland",
    "hasItems": false,
    "numberOfItems": 0,
    "children": [],
    "level": -1
  },
  {
    "id": "XRN35GE2YGHZSOH22CMBX2MN43OUNMWI",
    "name": "Archiv der Deutschen Welle - Bonn",
    "sector": "sec_01",
    "latitude": "50.7166687",
    "longitude": "7.1279349",
    "locationDisplayName": "Schürmann-Bau, Kurt-Schumacher-Straße, Gronau, Stadtbezirk Bonn, Bonn, Regierungsbezirk Köln, Nordrhein-Westfalen, 53113, Deutschland",
    "hasItems": false,
    "numberOfItems": 0,
    "children": [],
    "level": -1
  },
  {
    "id": "7NNA4NMQ5NQRIPEPTKXTOQW2DNQ5O5LF",
    "name": "Archiv der DHV - Die Berufsgewerkschaft",
    "sector": "sec_01",
    "latitude": "53.5529625",
    "longitude": "10.0625984",
    "locationDisplayName": "31, Droopweg, Hamm, Hamburg-Mitte, Hamburg, 20537, Deutschland",
    "hasItems": false,
    "numberOfItems": 0,
    "children": [],
    "level": -1
  },
  {
    "id": "437YWH4YZZ3UTHGNMRNVU5MT3MZTXOMB",
    "name": "Archiv der Dow Jones News GmbH - Redaktion",
    "sector": "sec_01",
    "latitude": "50.10408",
    "longitude": "8.66568",
    "locationDisplayName": "Baseler Arkaden, 78, Wilhelm-Leuschner-Straße, Bahnhofsviertel, Frankfurt am Main, Regierungsbezirk Darmstadt, Hessen, 60329, Deutschland",
    "hasItems": false,
    "numberOfItems": 0,
    "children": [],
    "level": -1
  },
  {
    "id": "NWW57Y7Z37DO56DEXQ6MRPAQAFSE3W22",
    "name": "Archiv der dpa Deutsche Presse-Agentur GmbH",
    "sector": "sec_01",
    "latitude": "52.507641",
    "longitude": "13.394413",
    "locationDisplayName": "20, Markgrafenstraße, Kreuzberg, Friedrichshain-Kreuzberg, Berlin, 10969, Deutschland",
    "hasItems": false,
    "numberOfItems": 0,
    "children": [],
    "level": -1
  },
  {
    "id": "MWC35ZU6OG3WXIHKGSCO2YTIDMHEH6NP",
    "name": "Archiv der DVV Media Group GmbH",
    "sector": "sec_01",
    "latitude": "53.5499483",
    "longitude": "10.0215011",
    "locationDisplayName": "36, Nordkanalstraße, Hammerbrook, Hamburg-Mitte, Hamburg, 20097, Deutschland",
    "hasItems": false,
    "numberOfItems": 0,
    "children": [],
    "level": -1
  },
  {
    "id": "CIM52UHXKYQU37EPTNLGXADHVOZF4YSA",
    "name": "Archiv der Essener Verkehrs-AG",
    "sector": "sec_01",
    "latitude": "51.43721",
    "longitude": "7.00096",
    "locationDisplayName": "Erzhof, 34, Zweigertstraße, Witteringsfeld, Rüttenscheid, Werden, Essen, Regierungsbezirk Düsseldorf, Nordrhein-Westfalen, 45130, Deutschland",
    "hasItems": false,
    "numberOfItems": 0,
    "children": [],
    "level": -1
  },
  {
    "id": "A7C645Y3QYAHJSVMCPI7C77SI5YJOJJO",
    "name": "Archiv der European Central Bank",
    "sector": "sec_01",
    "latitude": "50.1094921",
    "longitude": "8.6739649",
    "locationDisplayName": "29, Kaiserstraße, Innenstadt, Frankfurt am Main, Regierungsbezirk Darmstadt, Hessen, 60311, Deutschland",
    "hasItems": false,
    "numberOfItems": 0,
    "children": [],
    "level": -1
  },
  {
    "id": "UJLDJ5JLGSGCZGZOO7GOWIBGAVX7Z732",
    "name": "Archiv der Evangelischen Akademie Bad Boll",
    "sector": "sec_01",
    "latitude": "48.63852",
    "longitude": "9.60089",
    "locationDisplayName": "Evangelische Akademie Bad Boll, 11, Akademieweg, Bad Boll-Eckwälden, Bad Boll, Gemeindeverwaltungsverband Raum Bad Boll, Landkreis Göppingen, Regierungsbezirk Stuttgart, Baden-Württemberg, 73087, Deutschland",
    "hasItems": false,
    "numberOfItems": 0,
    "children": [],
    "level": -1
  },
  {
    "id": "VHBMPHNX6Y7RGDKHREYPMPYLXXJA6XVQ",
    "name": "Archiv der Evangelischen Kirche im Rheinland",
    "sector": "sec_01",
    "latitude": "51.24715",
    "longitude": "6.77623",
    "locationDisplayName": "Landeskirchenamt Evangelische Kirche im Rheinland, 7, Hans-Böckler-Straße, Golzheim, Stadtbezirk 1, Düsseldorf, Regierungsbezirk Düsseldorf, Nordrhein-Westfalen, 40476, Deutschland",
    "hasItems": true,
    "numberOfItems": 16147,
    "children": [
      {
        "id": "WGDUIFEYFHX56P3G2TPNHBWWNNE3ZMFW",
        "name": "Evangelische Archivstelle Boppard",
        "sector": "sec_01",
        "latitude": "50.230072",
        "longitude": "7.6036732",
        "locationDisplayName": "Mainzer Straße, Boppard-Buchenau, Boppard, Rhein-Hunsrück-Kreis, Rheinland-Pfalz, 56154, Deutschland",
        "hasItems": false,
        "numberOfItems": 0,
        "children": [],
        "level": -1
      }
    ],
    "level": -1
  },
  {
    "id": "5UNQMC6MCVI4TU3YSATGTXNFM72W2YXX",
    "name": "Archiv der Evangelischen Stadtkirchengemeinde Wittenberg",
    "sector": "sec_01",
    "latitude": "51.86704",
    "longitude": "12.64573",
    "locationDisplayName": "37, Jüdenstraße, Altstadt, Wittenberg, Landkreis Wittenberg, Sachsen-Anhalt, 06886, Deutschland",
    "hasItems": false,
    "numberOfItems": 0,
    "children": [],
    "level": -1
  },
  {
    "id": "PCNWPF5GG53CKDRNVZPIPBGKTSTXBKDQ",
    "name": "Archiv der FH Aachen",
    "sector": "sec_01",
    "latitude": "50.7685786",
    "longitude": "6.0787029",
    "locationDisplayName": "FH Aachen: Gebäude Boxgraben, 98,100, Boxgraben, Marschiertor, Burtscheid, Aachen-Mitte, Aachen, Städteregion Aachen, Regierungsbezirk Köln, Nordrhein-Westfalen, 52064, Deutschland",
    "hasItems": false,
    "numberOfItems": 0,
    "children": [],
    "level": -1
  },
  {
    "id": "JLRXEFG7NSZMJJ5M4ID6LZTULIE4NP7E",
    "name": "Archiv der Frankfurter Allgemeine Zeitung GmbH",
    "sector": "sec_01",
    "latitude": "50.1050003",
    "longitude": "8.646566",
    "locationDisplayName": "71-81, Frankenallee, Gallus, Frankfurt am Main, Regierungsbezirk Darmstadt, Hessen, 60327, Deutschland",
    "hasItems": false,
    "numberOfItems": 0,
    "children": [],
    "level": -1
  },
  {
    "id": "U3HZMEH4EPTCTPRE2J2L6LM5LDAVAOXP",
    "name": "Archiv der Frankfurter Rundschau GmbH",
    "sector": "sec_01",
    "latitude": "50.1052084",
    "longitude": "8.6464698",
    "locationDisplayName": "71-81, Frankenallee, Gallus, Frankfurt am Main, Regierungsbezirk Darmstadt, Hessen, 60327, Deutschland",
    "hasItems": false,
    "numberOfItems": 0,
    "children": [],
    "level": -1
  },
  {
    "id": "PHB55JMWLSKMARAYXBXP465Y57P4UD47",
    "name": "Archiv der Frankfurter Societäts-Medien GmbH",
    "sector": "sec_01",
    "latitude": "50.1052084",
    "longitude": "8.6464698",
    "locationDisplayName": "71-81, Frankenallee, Gallus, Frankfurt am Main, Regierungsbezirk Darmstadt, Hessen, 60327, Deutschland",
    "hasItems": false,
    "numberOfItems": 0,
    "children": [],
    "level": -1
  },
  {
    "id": "BJZYSDIUE6MATXWXWIH2SLVELBY35TTS",
    "name": "Archiv der Fränkischen Landeszeitung",
    "sector": "sec_01",
    "latitude": "49.30375",
    "longitude": "10.57722",
    "locationDisplayName": "Fränkische Landeszeitung, 9-17, Nürnberger Straße, Kammerforst, Ansbach, Mittelfranken, Bayern, 91522, Deutschland",
    "hasItems": false,
    "numberOfItems": 0,
    "children": [],
    "level": -1
  },
  {
    "id": "O2OMOU6KGKHOEHPGPYT2R2EYKC4CBMTB",
    "name": "Archiv der Freiherren Raßler von Gamerschwang",
    "sector": "sec_01",
    "latitude": "48.6616037",
    "longitude": "9.3501336",
    "locationDisplayName": "Mörikestraße, Unterensingen, Vereinbarte Verwaltungsgemeinschaft der Stadt Nürtingen, Landkreis Esslingen, Regierungsbezirk Stuttgart, Baden-Württemberg, 72669, Deutschland",
    "hasItems": false,
    "numberOfItems": 0,
    "children": [],
    "level": -1
  },
  {
    "id": "OL25VNXRDC6MP3C3IGVDNCW4UA6ARR7P",
    "name": "Archiv der Freiherren von Bettendorff",
    "sector": "sec_01",
    "latitude": "49.32603",
    "longitude": "8.69434",
    "locationDisplayName": "St. Laurentius, 38, Hauptstraße, Willhelmsberg, Nußloch, Rhein-Neckar-Kreis, Regierungsbezirk Karlsruhe, Baden-Württemberg, 69226, Deutschland",
    "hasItems": false,
    "numberOfItems": 0,
    "children": [],
    "level": -1
  },
  {
    "id": "HDSFCPPPFOY2Y56EERLZL6OF4CJDLBQ4",
    "name": "Archiv der Freiherren von Boeselager",
    "sector": "sec_01",
    "latitude": "50.7124",
    "longitude": "6.91667",
    "locationDisplayName": "Burg Heimerzheim, 1, L 163, Burg Kriegshoven, Heimerzheim, Swisttal, Rhein-Sieg-Kreis, Regierungsbezirk Köln, Nordrhein-Westfalen, 53913, Deutschland",
    "hasItems": false,
    "numberOfItems": 0,
    "children": [],
    "level": -1
  },
  {
    "id": "CF2HHGH3IO2GWJXPROLPRMNBMQGNEHMR",
    "name": "Archiv der Freiherren von OW, Teil Piesing",
    "sector": "sec_01",
    "latitude": "48.2068578",
    "longitude": "12.8601108",
    "locationDisplayName": "Schloss Piesing, AÖ 24, Haiming, Landkreis Altötting, Oberbayern, Bayern, 84533, Deutschland",
    "hasItems": false,
    "numberOfItems": 0,
    "children": [],
    "level": -1
  },
  {
    "id": "7P3SNCLLYQX42WXD3JCWRJHU2QG5GEEI",
    "name": "Archiv der Freiherren von und zu Aufseß",
    "sector": "sec_01",
    "latitude": "49.8827664",
    "longitude": "11.2282796",
    "locationDisplayName": "Schloss Unteraufseß, Schloßberg, Aufseß, Hollfeld (VGem), Landkreis Bayreuth, Oberfranken, Bayern, 91347, Deutschland",
    "hasItems": false,
    "numberOfItems": 0,
    "children": [],
    "level": -1
  },
  {
    "id": "X7APXYCJCRTHR3Y64QCH6QMNQHH6RYA4",
    "name": "Archiv der Freiherren von Vequel-Westernach",
    "sector": "sec_01",
    "latitude": "47.90414",
    "longitude": "10.16027",
    "locationDisplayName": "Schloss Kronburg, 1, Burgstraße, Kronburg, Illerwinkel, Landkreis Unterallgäu, Schwaben, Bayern, 87758, Deutschland",
    "hasItems": false,
    "numberOfItems": 0,
    "children": [],
    "level": -1
  },
  {
    "id": "W5UDQJRGEVVHOUUCNER4OUM6WRRN7PRY",
    "name": "Archiv der Freiherren von Wylich und Grafen zu Stolberg-Wernigerode",
    "sector": "sec_01",
    "latitude": "51.69093",
    "longitude": "6.54451",
    "locationDisplayName": "1a, Kastanienallee, Diersfordt, Wesel, Kreis Wesel, Regierungsbezirk Düsseldorf, Nordrhein-Westfalen, 46487, Deutschland",
    "hasItems": false,
    "numberOfItems": 0,
    "children": [],
    "level": -1
  },
  {
    "id": "DBA53DZTFCD3REJJNBXJALNQGJ2HISTU",
    "name": "Archiv der Fürst zu Solms-Braunfelsschen Familienstiftung",
    "sector": "sec_01",
    "latitude": "50.51395",
    "longitude": "8.38886",
    "locationDisplayName": "1, Belzgasse, Braunfels, Lahn-Dill-Kreis, Regierungsbezirk Gießen, Hessen, 35619, Deutschland",
    "hasItems": false,
    "numberOfItems": 0,
    "children": [],
    "level": -1
  },
  {
    "id": "GWRE3X2JSTCLG76SOBQ4QSR7R3UTJ5GX",
    "name": "Archiv der Gemeinde Geeste",
    "sector": "sec_01",
    "latitude": "52.58966986640953",
    "longitude": "7.229471026458754",
    "locationDisplayName": "Polizeistation Geeste, 1, Am Rathaus, Dalum, Geeste, Landkreis Emsland, Niedersachsen, 49744, Deutschland",
    "hasItems": false,
    "numberOfItems": 0,
    "children": [],
    "level": -1
  },
  {
    "id": "I6UV4YS2UG5GFVMNE2H47ZLJYANJLOJH",
    "name": "Archiv der Gemeinde Neukirch/Lausitz",
    "sector": "sec_01",
    "latitude": "51.09411199999999",
    "longitude": "14.316676799999982",
    "locationDisplayName": "20, Hauptstraße, Neukirch/Lausitz, Bautzen, Sachsen, 01904, Deutschland",
    "hasItems": false,
    "numberOfItems": 0,
    "children": [],
    "level": -1
  },
  {
    "id": "XRMSW3D3NQFYIMZG7INICVNJPZCPKLXV",
    "name": "Archiv der Gemeinde Swisttal",
    "sector": "sec_01",
    "latitude": "50.661131",
    "longitude": "6.892656",
    "locationDisplayName": "Rathaus Swisttal, 115, Rathausstraße, Ludendorf, Swisttal, Rhein-Sieg-Kreis, Nordrhein-Westfalen, 53913, Deutschland",
    "hasItems": true,
    "numberOfItems": 20,
    "children": [
      {
        "id": "ZIKSOZ4OSOH4SLYMOJKMKHWDN2YAIO35",
        "name": "Archiv der Gemeinde Swisttal (Besucheradresse)",
        "sector": "sec_01",
        "latitude": "50.66351",
        "longitude": "6.89339",
        "locationDisplayName": "Ludendorf Amt, Ollheimer Straße, Ludendorf, Swisttal, Rhein-Sieg-Kreis, Regierungsbezirk Köln, Nordrhein-Westfalen, 53913, Deutschland",
        "hasItems": false,
        "numberOfItems": 0,
        "children": [],
        "level": -1
      }
    ],
    "level": -1
  },
  {
    "id": "BXGCKNRRPI2GCAT4VUISYFH5LU2NQNZK",
    "name": "Archiv der Genealogische Gesellschaft von Utah",
    "sector": "sec_01",
    "latitude": "49.35294",
    "longitude": "11.50558",
    "locationDisplayName": "Am Königsweg, Litzlohe, Neumarkt in der Oberpfalz (VGem), Landkreis Neumarkt in der Oberpfalz, Oberpfalz, Bayern, 92367, Deutschland",
    "hasItems": false,
    "numberOfItems": 0,
    "children": [],
    "level": -1
  },
  {
    "id": "FOABDP3C7REXAES3X67JGP2KX2QQ4F46",
    "name": "Archiv der Geschichtswerkstatt Achim - Verein für Regionalgeschichte e.V.",
    "sector": "sec_01",
    "latitude": "53.0123545",
    "longitude": "9.0320105",
    "locationDisplayName": "2, Große Kirchenstraße, Achim, Landkreis Verden, Niedersachsen, 28832, Deutschland",
    "hasItems": false,
    "numberOfItems": 0,
    "children": [],
    "level": -1
  },
  {
    "id": "IMJJVYGYNILULBGEWWIGLWESNF2CW5NT",
    "name": "Archiv der Gesellschaft für die Geschichte des Weines",
    "sector": "sec_01",
    "latitude": "49.9843709",
    "longitude": "7.9613951",
    "locationDisplayName": "Hochschule GEISENHEIM University, 1, Von-Lade-Straße, Marienthal, Geisenheim, Rheingau-Taunus-Kreis, Regierungsbezirk Darmstadt, Hessen, 65366, Deutschland",
    "hasItems": false,
    "numberOfItems": 0,
    "children": [],
    "level": -1
  },
  {
    "id": "VFDECIUACRZPWH2CDGBU22U7UCPODNZB",
    "name": "Archiv der Gesellschaft für Sicherheitspolitik e.V.",
    "sector": "sec_01",
    "latitude": "50.7370226",
    "longitude": "7.1027524",
    "locationDisplayName": "42, Wenzelgasse, Bonn-Zentrum, Stadtbezirk Bonn, Bonn, Regierungsbezirk Köln, Nordrhein-Westfalen, 53111, Deutschland",
    "hasItems": false,
    "numberOfItems": 0,
    "children": [],
    "level": -1
  },
  {
    "id": "TFPQKD6Z2Q55VWJBCXGDDYA6EGSZBEJ7",
    "name": "Archiv der Gesellschaft für Versicherungswissenschaften und -gestaltung e.V. (GVG)",
    "sector": "sec_01",
    "latitude": "50.9470053",
    "longitude": "6.946529",
    "locationDisplayName": "43, Hansaring, Neustadt/Nord, Innenstadt, Köln, Regierungsbezirk Köln, Nordrhein-Westfalen, 50670, Deutschland",
    "hasItems": false,
    "numberOfItems": 0,
    "children": [],
    "level": -1
  },
  {
    "id": "VLMHRDYOWSGLZ7ROEXCYQFUAAQSHSGKT",
    "name": "Archiv der Getty-Images Deutschland GmbH",
    "sector": "sec_01",
    "latitude": "48.1264914",
    "longitude": "11.5725653",
    "locationDisplayName": "5, Auenstraße, Bezirksteil Glockenbach, Stadtbezirk 02 Ludwigsvorstadt-Isarvorstadt, München, Oberbayern, Bayern, 80469, Deutschland",
    "hasItems": false,
    "numberOfItems": 0,
    "children": [],
    "level": -1
  },
  {
    "id": "EURJTGZGHMZGUOURGQQKH2QLINMAAKPP",
    "name": "Archiv der Gruner + Jahr GmbH & Co. KG",
    "sector": "sec_01",
    "latitude": "53.54488",
    "longitude": "9.98262",
    "locationDisplayName": "11, Steinhöft, Neustadt, Hamburg-Mitte, Hamburg, 20459, Deutschland",
    "hasItems": false,
    "numberOfItems": 0,
    "children": [],
    "level": -1
  },
  {
    "id": "TD25G7JFX5CC4QMMGCKSNEETYGOSDAN2",
    "name": "Archiv der Hamburgischen Staatsoper GmbH",
    "sector": "sec_01",
    "latitude": "53.55662",
    "longitude": "9.98913",
    "locationDisplayName": "Hamburgische Staatsoper, 25, Große Theaterstraße, Neustadt, Hamburg-Mitte, Hamburg, 20354, Deutschland",
    "hasItems": false,
    "numberOfItems": 0,
    "children": [],
    "level": -1
  },
  {
    "id": "3PKSQP7B3VTVPS2YXJNKFFXJJPTNLLTQ",
    "name": "Archiv der Handelskammer Bremen",
    "sector": "sec_01",
    "latitude": "53.0755498",
    "longitude": "8.8064982",
    "locationDisplayName": "Schütting, 13, Am Markt, Altstadt, Mitte, Stadtbezirk Bremen-Mitte, Bremen, 28195, Deutschland",
    "hasItems": false,
    "numberOfItems": 0,
    "children": [],
    "level": -1
  },
  {
    "id": "YGALC5ZF7PGZ24USUHP5UIVNLFRK7EOT",
    "name": "Archiv der Hansestadt Lübeck",
    "sector": "sec_01",
    "latitude": "53.8603433",
    "longitude": "10.6850314",
    "locationDisplayName": "1-3, Mühlendamm, Innenstadt, Lübeck, Schleswig-Holstein, 23552, Deutschland",
    "hasItems": true,
    "numberOfItems": 5071,
    "children": [],
    "level": -1
  },
  {
    "id": "NHTCZUDUWLLNBYFBHSS3TE7ORCYR3V3O",
    "name": "Archiv der Hansestadt Lüneburg",
    "sector": "sec_01",
    "latitude": "53.24588160130368",
    "longitude": "10.407595742397348",
    "locationDisplayName": "Stadtarchiv, Ritterstraße, Altstadt, Lüneburg, Landkreis Lüneburg, Niedersachsen, 21335, Deutschland",
    "hasItems": true,
    "numberOfItems": 13343,
    "children": [],
    "level": -1
  },
  {
    "id": "ZYDP3SGUUVCR2Y5XD43PHPPO7F2AYHJ6",
    "name": "Archiv der Hansestadt Wismar",
    "sector": "sec_01",
    "latitude": "53.8925132",
    "longitude": "11.4693289",
    "locationDisplayName": "7, Altwismarstraße, Kagenmarkt, Lenensruhe, Wismar, Nordwestmecklenburg, Mecklenburg-Vorpommern, 23966, Deutschland",
    "hasItems": true,
    "numberOfItems": 63261,
    "children": [],
    "level": -1
  },
  {
    "id": "MKQWVK4FP7N72KTEIYK6HUB7ZDY5UTFJ",
    "name": "Archiv der Hermann-Gundert-Schule Calw",
    "sector": "sec_01",
    "latitude": "48.71283",
    "longitude": "8.73268",
    "locationDisplayName": "10, Oberriedter Straße, Wimberg, Calw, Verwaltungsgemeinschaft Calw, Landkreis Calw, Regierungsbezirk Karlsruhe, Baden-Württemberg, 75365, Deutschland",
    "hasItems": false,
    "numberOfItems": 0,
    "children": [],
    "level": -1
  },
  {
    "id": "HEPBLQ7KFOB63FKE62EGKEOLHSNZVNYI",
    "name": "Archiv der Herzog-Wolfgang-Stiftung",
    "sector": "sec_01",
    "latitude": "49.247298",
    "longitude": "7.370254",
    "locationDisplayName": "16, Johann-Schwebel-Straße, Fasanerieberg, Zweibrücken, Rheinland-Pfalz, 66482, Deutschland",
    "hasItems": false,
    "numberOfItems": 0,
    "children": [],
    "level": -1
  },
  {
    "id": "U532QXLIP3OIDHSWYXK2OJVHB5KSONQT",
    "name": "Archiv der Hochschule für Fernsehen und Film",
    "sector": "sec_01",
    "latitude": "48.14650423995229",
    "longitude": "11.568780023803697",
    "locationDisplayName": "Hochschule für Fernsehen und Film München, 1, Bernd-Eichinger-Platz, Bezirksteil Königsplatz, Maxvorstadt, München, Oberbayern, Bayern, 80333, Deutschland",
    "hasItems": false,
    "numberOfItems": 0,
    "children": [],
    "level": -1
  },
  {
    "id": "3ENIXDNMGQABYTW6YPXL2UBIHGBHPJXN",
    "name": "Archiv der Hoffnungstaler Stiftung Lobetal",
    "sector": "sec_01",
    "latitude": "52.7282793",
    "longitude": "13.5944869",
    "locationDisplayName": "Johanna-Theresen-Haus, 25, Bodelschwinghstraße, Woltersdorf, Bernau, Landkreis Barnim, Brandenburg, 16321, Deutschland",
    "hasItems": false,
    "numberOfItems": 0,
    "children": [],
    "level": -1
  },
  {
    "id": "IPBXL3DMLFA3FECTZ3BJXOLVYYDEFA2F",
    "name": "Archiv der Hoya-Diepholzschen Landschaft",
    "sector": "sec_01",
    "latitude": "52.6377352",
    "longitude": "9.208301",
    "locationDisplayName": "6007, Leinstraße, Nienburg/Weser, Nienburg (Weser), Landkreis Nienburg/Weser, Niedersachsen, 31582, Deutschland",
    "hasItems": false,
    "numberOfItems": 0,
    "children": [],
    "level": -1
  },
  {
    "id": "2UYDAQVATPLTUE2BAMLVWKH4LTVRWSI4",
    "name": "Archiv der Industrie- und Handelskammer Arnsberg, Hellweg-Sauerland",
    "sector": "sec_01",
    "latitude": "51.3945478",
    "longitude": "8.0627314",
    "locationDisplayName": "20, Königstraße, Obereimer, Arnsberg, Hochsauerlandkreis, Regierungsbezirk Arnsberg, Nordrhein-Westfalen, 59821, Deutschland",
    "hasItems": false,
    "numberOfItems": 0,
    "children": [],
    "level": -1
  },
  {
    "id": "5FFENH6ZEF6NBVHJU3466WTYJAZL2QU6",
    "name": "Archiv der Industrie- und Handelskammer Bremerhaven",
    "sector": "sec_01",
    "latitude": "53.53954",
    "longitude": "8.59122",
    "locationDisplayName": "Industrie- und Handelskammer Bremerhaven, 6, Friedrich-Ebert-Straße, Geestemünde-Nord, Geestemünde, Stadtbezirk Bremerhaven-Süd, Bremerhaven, Bremen, 27570, Deutschland",
    "hasItems": false,
    "numberOfItems": 0,
    "children": [],
    "level": -1
  },
  {
    "id": "YXXLTMBPDUTU7BFV54HGF7OG5MJRBOUB",
    "name": "Archiv der Industrie- und Handelskammer Fulda",
    "sector": "sec_01",
    "latitude": "50.5537717",
    "longitude": "9.6814885",
    "locationDisplayName": "Krankenkasse DAK, 6, Heinrichstraße, Neuenberg, Fulda, Landkreis Fulda, Regierungsbezirk Kassel, Hessen, 36037, Deutschland, Europa",
    "hasItems": false,
    "numberOfItems": 0,
    "children": [],
    "level": -1
  },
  {
    "id": "QDEO5ZCQHJSQJOYNGOE2XYJU76X4XEBK",
    "name": "Archiv der Industrie- und Handelskammer für die Pfalz",
    "sector": "sec_01",
    "latitude": "49.48421",
    "longitude": "8.44602",
    "locationDisplayName": "IHK-Dienstleistungszentrum Ludwigshafen, 4, Ludwigsplatz, Mitte, Ludwigshafen-Mitte, Ludwigshafen-Südliche-Innenstadt, Ludwigshafen am Rhein, Rheinland-Pfalz, 67059, Deutschland",
    "hasItems": false,
    "numberOfItems": 0,
    "children": [],
    "level": -1
  },
  {
    "id": "47YTNZL2NH2SBPNT3ZVAWRKW45LS3CDH",
    "name": "Archiv der Industrie- und Handelskammer Hannover-Hildesheim",
    "sector": "sec_01",
    "latitude": "52.14968",
    "longitude": "9.95508",
    "locationDisplayName": "Immatrikulationsamt/ Prüfungsamt/ CL3 Universität Hildesheim, 20, Hindenburgplatz, Venedig, Neustadt, Stadtmitte/Neustadt, Hildesheim, Landkreis Hildesheim, Niedersachsen, 31134, Deutschland, Europa",
    "hasItems": false,
    "numberOfItems": 0,
    "children": [],
    "level": -1
  },
  {
    "id": "AVVH2F2WIMQYFGXMNNC3KZ5APAU7XVVN",
    "name": "Archiv der Industrie- und Handelskammer Hochrhein-Bodensee",
    "sector": "sec_01",
    "latitude": "47.6607036",
    "longitude": "9.1696663",
    "locationDisplayName": "8, Schützenstraße, Konstanz-Altstadt, Konstanz, Verwaltungsgemeinschaft Konstanz, Landkreis Konstanz, Regierungsbezirk Freiburg, Baden-Württemberg, 78462, Deutschland",
    "hasItems": false,
    "numberOfItems": 0,
    "children": [],
    "level": -1
  },
  {
    "id": "JHP3SK4VD6KYIIBGXQJX6KJOX4GB4WPF",
    "name": "Archiv der Industrie- und Handelskammer Karlsruhe",
    "sector": "sec_01",
    "latitude": "49.0076264",
    "longitude": "8.4015126",
    "locationDisplayName": "Friedrichsplatz, Erbprinzenstraße, Innenstadt-West, Karlsruhe, Regierungsbezirk Karlsruhe, Baden-Württemberg, 76133, Deutschland",
    "hasItems": false,
    "numberOfItems": 0,
    "children": [],
    "level": -1
  },
  {
    "id": "D4QBN6RFL66YAWLXWACSB2B4U4MS4IG3",
    "name": "Archiv der Industrie- und Handelskammer Mittlerer Niederrhein",
    "sector": "sec_01",
    "latitude": "51.33716",
    "longitude": "6.56205",
    "locationDisplayName": "40, Nordwall, Innenstadt, Krefeld-Mitte, Krefeld, Regierungsbezirk Düsseldorf, Nordrhein-Westfalen, 47798, Deutschland",
    "hasItems": false,
    "numberOfItems": 0,
    "children": [],
    "level": -1
  },
  {
    "id": "QM4Q4RJYTLGMCDBGT7SK3WPPAOMYU2OR",
    "name": "Archiv der Industrie- und Handelskammer Nord Westfalen",
    "sector": "sec_01",
    "latitude": "51.94437",
    "longitude": "7.61631",
    "locationDisplayName": "IHK (Industrie- und Handelskammer), 63, Sentmaringer Weg, Geist, Mitte-Süd, Münster-Mitte, Münster, Regierungsbezirk Münster, Nordrhein-Westfalen, 48151, Deutschland",
    "hasItems": false,
    "numberOfItems": 0,
    "children": [],
    "level": -1
  },
  {
    "id": "XEO4LAE6AFM6CUINAFTALWE4KJXYA6EI",
    "name": "Archiv der Industrie- und Handelskammer Nürnberg für Mittelfranken",
    "sector": "sec_01",
    "latitude": "49.454712",
    "longitude": "11.0767291",
    "locationDisplayName": "29, Rathausplatz, Sebald, Nürnberg, Mittelfranken, Bayern, 90403, Deutschland",
    "hasItems": false,
    "numberOfItems": 0,
    "children": [],
    "level": -1
  },
  {
    "id": "LN6RT7SGV3N7UALGA47YAY3PZNVCCQRM",
    "name": "Archiv der Industrie- und Handelskammer Offenbach am Main",
    "sector": "sec_01",
    "latitude": "50.1032292",
    "longitude": "8.7542986",
    "locationDisplayName": "Industrie- und Handelskammer Offenbach am Main, 90, Frankfurter Straße, Offenbach am Main, Regierungsbezirk Darmstadt, Hessen, 63067, Deutschland",
    "hasItems": false,
    "numberOfItems": 0,
    "children": [],
    "level": -1
  },
  {
    "id": "YDUBUZ52MCU65QFNXOGXKTVGG3NO5QBU",
    "name": "Archiv der Industrie- und Handelskammer Ostwestfalen zu Bielefeld",
    "sector": "sec_01",
    "latitude": "52.02299",
    "longitude": "8.52863",
    "locationDisplayName": "1, Elsa-Brändström-Straße, Mitte, Sieker, Bielefeld, Regierungsbezirk Detmold, Nordrhein-Westfalen, 33602, Deutschland",
    "hasItems": false,
    "numberOfItems": 0,
    "children": [],
    "level": -1
  },
  {
    "id": "LJ5NQP7XUC64QCMVKMJSGHQFRQZLTUSD",
    "name": "Archiv der Industrie- und Handelskammer Rhein-Neckar in Mannheim",
    "sector": "sec_01",
    "latitude": "49.48513451913631",
    "longitude": "8.462991031738284",
    "locationDisplayName": "Landgericht Mannheim, 1-6, A1, Innenstadt/Jungbusch, Mannheim, Regierungsbezirk Karlsruhe, Baden-Württemberg, 68159, Deutschland",
    "hasItems": false,
    "numberOfItems": 0,
    "children": [],
    "level": -1
  },
  {
    "id": "CBUZPQLTSYG6C4LYMPVMCUEV67B2EULQ",
    "name": "Archiv der Industrie- und Handelskammer Trier",
    "sector": "sec_01",
    "latitude": "49.76844",
    "longitude": "6.65747",
    "locationDisplayName": "IHK Bildungszentrum, An der Hospitalsmühle, Nells-Ländchen, Nord, Trier, Rheinland-Pfalz, 54290, Deutschland",
    "hasItems": false,
    "numberOfItems": 0,
    "children": [],
    "level": -1
  },
  {
    "id": "T4DGDLOQCA5MWJNOZXNAYNOTYIJOHBEL",
    "name": "Archiv der Industrie- und Handelskammer Ulm",
    "sector": "sec_01",
    "latitude": "48.4019239",
    "longitude": "9.9908792",
    "locationDisplayName": "101, Olgastraße, Fischerviertel, Oststadt, Arbeitersiedlung Untere Bleiche, Ulm, Regierungsbezirk Tübingen, Baden-Württemberg, 89073, Deutschland",
    "hasItems": false,
    "numberOfItems": 0,
    "children": [],
    "level": -1
  },
  {
    "id": "D62K7IYO4DIAUUIMRP5T7NKO2HYNUJGD",
    "name": "Archiv der Industrie- und Handelskammer zu Flensburg",
    "sector": "sec_01",
    "latitude": "54.7819645",
    "longitude": "9.4416851",
    "locationDisplayName": "28-30, Heinrichstraße, Jürgensby, Flensburg, Schleswig-Holstein, 24937, Deutschland",
    "hasItems": false,
    "numberOfItems": 0,
    "children": [],
    "level": -1
  },
  {
    "id": "TSNCCRS6TOE3EJZQ3NZ42WUVASFN4IVG",
    "name": "Archiv der Iron Mountain Disos GmbH - Archivcenter Berlin und Brandenburg",
    "sector": "sec_01",
    "latitude": "52.3620245",
    "longitude": "12.7571181",
    "locationDisplayName": "Damsdorfer Hauptstraße, Damsdorf, Kloster Lehnin, Landkreis Potsdam-Mittelmark, Brandenburg, 14797, Deutschland",
    "hasItems": false,
    "numberOfItems": 0,
    "children": [],
    "level": -1
  },
  {
    "id": "NHUKZRX4QXRDC44YYXJKIBKEHYCESKVQ",
    "name": "Archiv der Iron Mountain Disos GmbH - Zentrale Hofheim",
    "sector": "sec_01",
    "latitude": "50.0952654",
    "longitude": "8.4566518",
    "locationDisplayName": "Peugeot, Im Langgewann, Hofheim am Taunus, Main-Taunus-Kreis, Regierungsbezirk Darmstadt, Hessen, 65719, Deutschland",
    "hasItems": false,
    "numberOfItems": 0,
    "children": [],
    "level": -1
  },
  {
    "id": "7VWMFKKKXAGGBTR3RLBBELAAEMAULFQE",
    "name": "Archiv der IWF Wissen und Medien gGmbH",
    "sector": "sec_01",
    "latitude": "51.54665",
    "longitude": "9.95898",
    "locationDisplayName": "72a, Nonnenstieg, Klausberg, Göttingen, Landkreis Göttingen, Niedersachsen, 37075, Deutschland, Europa",
    "hasItems": false,
    "numberOfItems": 0,
    "children": [],
    "level": -1
  },
  {
    "id": "LTYC6K2NFZ4EDCIGHTCQUEBDXOJCW3SV",
    "name": "Archiv der Jugendkulturen e.V.",
    "sector": "sec_01",
    "latitude": "52.48610140398321",
    "longitude": "13.390341630966187",
    "locationDisplayName": "Haus H, 3, Fidicinstraße, Bockbrauerei, Kreuzberg, Friedrichshain-Kreuzberg, Berlin, 10965, Deutschland",
    "hasItems": true,
    "numberOfItems": 2,
    "children": [],
    "level": -1
  },
  {
    "id": "G2C7NYNDJIKK35M2CT22NM57VXY5BK7C",
    "name": "Archiv der Kant Gesellschaft",
    "sector": "sec_01",
    "latitude": "49.992415",
    "longitude": "8.242471",
    "locationDisplayName": "FB 02: Sozialwissenschaften, Medien und Sport - SB II, 2, Colonel-Kleinmann-Weg, Oberstadt, Mainz, Rheinland-Pfalz, 55128, Deutschland",
    "hasItems": false,
    "numberOfItems": 0,
    "children": [],
    "level": -1
  },
  {
    "id": "UO7PDNH7FRPOJ45M7N2YTCKFUGMQS3Y3",
    "name": "Archiv der Karlsruher Lebensversicherung AG, DAB",
    "sector": "sec_01",
    "latitude": "48.99924",
    "longitude": "8.3979",
    "locationDisplayName": "Karlsruher Lebensversicherung (württembergische), 1, Friedrich-Scholl-Platz, Südweststadt, Karlsruhe, Regierungsbezirk Karlsruhe, Baden-Württemberg, 76137, Deutschland",
    "hasItems": false,
    "numberOfItems": 0,
    "children": [],
    "level": -1
  },
  {
    "id": "EGFQ75L2H3MZFI5FK22TYHEUDS2IMABK",
    "name": "Archiv der Kieler Nachrichten",
    "sector": "sec_01",
    "latitude": "54.32199",
    "longitude": "10.1336345",
    "locationDisplayName": "Rathaus Kiel, 9, Fleethörn, Brunswik, Kiel, Schleswig-Holstein, 24103, Deutschland",
    "hasItems": false,
    "numberOfItems": 0,
    "children": [],
    "level": -1
  },
  {
    "id": "GQNGZFT35QKAOEXCHGCX5A6MOXNRLB7U",
    "name": "Archiv der Kleinen Kreuzgemeinde (SELK) Hermannsburg",
    "sector": "sec_01",
    "latitude": "52.83034680000001",
    "longitude": "10.09537499999999",
    "locationDisplayName": "18, Lotharstraße, Hermannsburg, Südheide, Landkreis Celle, Niedersachsen, 29320, Deutschland",
    "hasItems": false,
    "numberOfItems": 0,
    "children": [],
    "level": -1
  },
  {
    "id": "3XU6SUMZHBHCAZ5PQTC5IGRI7CHPVAHJ",
    "name": "Archiv der Kommission für Zeitgeschichte e.V.",
    "sector": "sec_01",
    "latitude": "50.7344941",
    "longitude": "7.1057732",
    "locationDisplayName": "Koblenzer Tor, Adenauerallee, Bonn-Zentrum, Stadtbezirk Bonn, Bonn, Regierungsbezirk Köln, Nordrhein-Westfalen, 53113, Deutschland",
    "hasItems": false,
    "numberOfItems": 0,
    "children": [],
    "level": -1
  },
  {
    "id": "UAD7N3JIWHIYSCE7TRFQAX7BCB2ZSGGY",
    "name": "Archiv der Kongregation der Schwestern der Christlichen Liebe",
    "sector": "sec_01",
    "latitude": "51.7158797",
    "longitude": "8.7608966",
    "locationDisplayName": "Mutterhaus Schwestern der Christlichen Liebe, 2, Warburger Straße, Paderborn, Kreis Paderborn, Regierungsbezirk Detmold, Nordrhein-Westfalen, 33098, Deutschland",
    "hasItems": false,
    "numberOfItems": 0,
    "children": [],
    "level": -1
  },
  {
    "id": "2XO7XGWI5VLTGROAUW64XAUMG3VQBL43",
    "name": "Archiv der Kulturstiftung Dessau Wörlitz",
    "sector": "sec_01",
    "latitude": "51.8539308",
    "longitude": "12.1799",
    "locationDisplayName": "Schloss Großkühnau, 8, Ebenhanstraße, Großkühnau, Siedlung Bergens Busch, Dessau-Roßlau, Sachsen-Anhalt, 06846, Deutschland",
    "hasItems": false,
    "numberOfItems": 0,
    "children": [],
    "level": -1
  },
  {
    "id": "GYWMFNZA5KN3QWPMIDTQKNMPJTAS4K43",
    "name": "Archiv der Kunstakademie Düsseldorf",
    "sector": "sec_01",
    "latitude": "51.23046",
    "longitude": "6.77473",
    "locationDisplayName": "3, Eiskellerstraße, Altstadt, Stadtbezirk 1, Düsseldorf, Regierungsbezirk Düsseldorf, Nordrhein-Westfalen, 40213, Deutschland",
    "hasItems": false,
    "numberOfItems": 0,
    "children": [],
    "level": -1
  },
  {
    "id": "CYMNBTFTZXKTTXA34JPQYY5NA42P3Z7K",
    "name": "Archiv der Landesbank Baden-Württemberg",
    "sector": "sec_01",
    "latitude": "48.7859873",
    "longitude": "9.1810755",
    "locationDisplayName": "LBBW Landesbank Baden-Württemberg, Am Hauptbahnhof, Europaviertel, Stuttgart-Mitte, Stuttgart, Regierungsbezirk Stuttgart, Baden-Württemberg, 70173, Deutschland",
    "hasItems": false,
    "numberOfItems": 0,
    "children": [],
    "level": -1
  },
  {
    "id": "46CJWF4CSUGYNPABL2JE3C76Y7SLI2JL",
    "name": "Archiv der Landesschule Pforta",
    "sector": "sec_01",
    "latitude": "51.1423105",
    "longitude": "11.7518104",
    "locationDisplayName": "Landesschule Pforta, Schulstraße, Bad Kösen, Naumburg (Saale), Burgenlandkreis, Sachsen-Anhalt, 06628, Deutschland",
    "hasItems": false,
    "numberOfItems": 0,
    "children": [],
    "level": -1
  },
  {
    "id": "7R4QTABVFSHJ2H564CSKNCMFUJX7UOLP",
    "name": "Archiv der Lippischen Landeskirche",
    "sector": "sec_01",
    "latitude": "51.9340523",
    "longitude": "8.8831675",
    "locationDisplayName": "Landeskirchenamt; Diakonisches Werk, 27, Leopoldstraße, Jerxen, Detmold, Kreis Lippe, Regierungsbezirk Detmold, Nordrhein-Westfalen, 32756, Deutschland",
    "hasItems": false,
    "numberOfItems": 0,
    "children": [],
    "level": -1
  },
  {
    "id": "R2KIAFPBWHGSKGDTOOLXVBFFJ7JMQRHB",
    "name": "Archiv der Ludwig-Erhard-Stiftung",
    "sector": "sec_01",
    "latitude": "50.71158",
    "longitude": "7.13192",
    "locationDisplayName": "8, Johanniterstraße, Gronau, Stadtbezirk Bonn, Bonn, Regierungsbezirk Köln, Nordrhein-Westfalen, 53113, Deutschland",
    "hasItems": false,
    "numberOfItems": 0,
    "children": [],
    "level": -1
  },
  {
    "id": "TAQBWKWOUCYUHQXLVJNRXXSFFD7ZR4ID",
    "name": "Archiv der Luftschiffbau Zeppelin GmbH",
    "sector": "sec_01",
    "latitude": "47.651023149447944",
    "longitude": "9.483379357147214",
    "locationDisplayName": "Zeppelin Museum, 22, Seestraße, Schmitthennersiedlung, Friedrichshafen, Verwaltungsgemeinschaft Friedrichshafen, Bodenseekreis, Regierungsbezirk Tübingen, Baden-Württemberg, 88045, Deutschland",
    "hasItems": false,
    "numberOfItems": 0,
    "children": [],
    "level": -1
  },
  {
    "id": "RCHI3KFCCJ6VSLO6FPS3EHIVAJLM2YKJ",
    "name": "Archiv der Marktgemeinde Winterhausen",
    "sector": "sec_01",
    "latitude": "49.70572",
    "longitude": "10.0116",
    "locationDisplayName": "Schönleite, Winterhausen, Verwaltungsgemeinschaft Eibelstadt, Landkreis Würzburg, Unterfranken, Bayern, 97286, Deutschland",
    "hasItems": false,
    "numberOfItems": 0,
    "children": [],
    "level": -1
  },
  {
    "id": "LJLGV7WF7XN2W4FLJDEVYHVMOWZGWGSC",
    "name": "Archiv der Max-Planck-Gesellschaft",
    "sector": "sec_01",
    "latitude": "52.44679",
    "longitude": "13.278149999999982",
    "locationDisplayName": "Freie Universität Berlin, Garystraße, Dahlem, Steglitz-Zehlendorf, Berlin, 14195, Deutschland",
    "hasItems": true,
    "numberOfItems": 84667,
    "children": [],
    "level": -1
  },
  {
    "id": "KC7ZP6J6VZ4VFJCT34PA7BGLXGJUH43N",
    "name": "Archiv der Messe Frankfurt GmbH",
    "sector": "sec_01",
    "latitude": "50.1119923",
    "longitude": "8.6522484",
    "locationDisplayName": "BA-0258-7 / BA-0257-0, 49, Friedrich-Ebert-Anlage, Westend Süd, Frankfurt am Main, Regierungsbezirk Darmstadt, Hessen, 60327, Deutschland",
    "hasItems": false,
    "numberOfItems": 0,
    "children": [],
    "level": -1
  },
  {
    "id": "X22R4XNEK6GXTTRJ5WNE6KNMQPXNDUDA",
    "name": "Archiv der Münchner Arbeiterbewegung e.V.",
    "sector": "sec_01",
    "latitude": "48.1458586",
    "longitude": "11.4626062",
    "locationDisplayName": "Ebenböck-Haus, 11, Ebenböckstraße, Bezirksteil Pasing, Stadtbezirk 21 Pasing-Obermenzing, München, Oberbayern, Bayern, 81241, Deutschland",
    "hasItems": false,
    "numberOfItems": 0,
    "children": [],
    "level": -1
  },
  {
    "id": "HJXBQDXK4C636TET4SKLPVJKX3KVQO4G",
    "name": "Archiv der Odenwaldschule Ober-Hambach",
    "sector": "sec_01",
    "latitude": "49.6669456",
    "longitude": "8.6867854",
    "locationDisplayName": "25, Paul-Geheeb-Straße, Ober-Hambach, Heppenheim, Kreis Bergstraße, Regierungsbezirk Darmstadt, Hessen, 64646, Deutschland",
    "hasItems": false,
    "numberOfItems": 0,
    "children": [],
    "level": -1
  },
  {
    "id": "WQDVP2KORJJRKZQYQS3K76IPVXO2BCAS",
    "name": "Archiv der Oldenburgischen Industrie- und Handelskammer",
    "sector": "sec_01",
    "latitude": "53.1436337",
    "longitude": "8.2158985",
    "locationDisplayName": "6, Moslestraße, Bahnhofsviertel, Oldenburg, Niedersachsen, 26122, Deutschland",
    "hasItems": false,
    "numberOfItems": 0,
    "children": [],
    "level": -1
  },
  {
    "id": "K6BTKX5RFRLFWWXPWNMKSKPMCPKAM4WS",
    "name": "Archiv der ostdeutschen Theater, Persönlichkeiten-Archiv / Musikarchiv der KünstlerGilde e.V.",
    "sector": "sec_01",
    "latitude": "48.7420434",
    "longitude": "9.3082031",
    "locationDisplayName": "6, Hafenmarkt, Innenstadt, Esslingen am Neckar, Landkreis Esslingen, Regierungsbezirk Stuttgart, Baden-Württemberg, 73728, Deutschland",
    "hasItems": false,
    "numberOfItems": 0,
    "children": [],
    "level": -1
  },
  {
    "id": "VAY6GCMQF5ULWPDWTLQF327UNCED4FT6",
    "name": "Archiv der Paulaner Brauerei GmbH & Co.KG",
    "sector": "sec_01",
    "latitude": "48.1222758",
    "longitude": "11.5831711",
    "locationDisplayName": "Verwaltung Paulaner + Hacker-Pschorr, Hochstraße, Bezirksteil Obere Au, Stadtbezirk 05 Au-Haidhausen, München, Oberbayern, Bayern, 81541, Deutschland",
    "hasItems": false,
    "numberOfItems": 0,
    "children": [],
    "level": -1
  },
  {
    "id": "PEVUWPVT44MHVRD4HU7TBLSTWUMYWZ3P",
    "name": "Archiv der Region Hannover",
    "sector": "sec_01",
    "latitude": "52.5028555",
    "longitude": "9.4629542",
    "locationDisplayName": "Schloss Landestrost, Schloßstraße, Neustadt am Rübenberge, Region Hannover, Niedersachsen, 31535, Deutschland",
    "hasItems": false,
    "numberOfItems": 0,
    "children": [],
    "level": -1
  },
  {
    "id": "T2GRUAMQYVBPNOPHQSU4HRMNTJXT2HLF",
    "name": "Archiv der Riedesel Freiherren zu Eisenbach",
    "sector": "sec_01",
    "latitude": "50.63807",
    "longitude": "9.39563",
    "locationDisplayName": "Burg Lauterbach, 1, Burg, Lauterbach, Vogelsbergkreis, Regierungsbezirk Gießen, Hessen, 36341, Deutschland, Europa",
    "hasItems": false,
    "numberOfItems": 0,
    "children": [],
    "level": -1
  },
  {
    "id": "F5IBDD2VZIFLGDHWXYLL55I4D7KT6RGE",
    "name": "Archiv der RTL Television Infonetwork GmbH",
    "sector": "sec_01",
    "latitude": "50.9432501",
    "longitude": "6.971313",
    "locationDisplayName": "Rheinhallen HDI-Gerling Talanx, Picassoplatz, Deutz, Innenstadt, Köln, Regierungsbezirk Köln, Nordrhein-Westfalen, 50667-51149, Deutschland",
    "hasItems": false,
    "numberOfItems": 0,
    "children": [],
    "level": -1
  },
  {
    "id": "FMWR7NNL4ANPJFXEJ5ZYPY2DIZAC6BKJ",
    "name": "Archiv der Russisch-orthodoxen Diözese des orthodoxen Bischofs von Berlin und Deutschlands KdöR München",
    "sector": "sec_01",
    "latitude": "48.162107",
    "longitude": "11.458547",
    "locationDisplayName": "22, Hofbauernstraße, Bezirksteil Obermenzing, Stadtbezirk 21 Pasing-Obermenzing, München, Oberbayern, Bayern, 81247, Deutschland",
    "hasItems": false,
    "numberOfItems": 0,
    "children": [],
    "level": -1
  },
  {
    "id": "WDS7REBSJ7HUI3WRTOOPHEZSXU6RHVMM",
    "name": "Archiv der S-Bahn Berlin GmbH",
    "sector": "sec_01",
    "latitude": "52.4442348",
    "longitude": "13.530142",
    "locationDisplayName": "Sparda-Bank, Adlergestell, Niederschöneweide, Treptow-Köpenick, Berlin, 12439, Deutschland",
    "hasItems": false,
    "numberOfItems": 0,
    "children": [],
    "level": -1
  },
  {
    "id": "CFUSDCE4G3TKBFD7KAAQP2EKG24JNPPY",
    "name": "Archiv der Samtgemeinde Bersenbrück",
    "sector": "sec_01",
    "latitude": "52.5552524",
    "longitude": "7.946681",
    "locationDisplayName": "Rathaus, 2, Lindenstraße, Bersenbrück, Samtgemeinde Bersenbrück, Landkreis Osnabrück, Niedersachsen, 49593, Deutschland",
    "hasItems": false,
    "numberOfItems": 0,
    "children": [],
    "level": -1
  },
  {
    "id": "UTWHSAQ6ALQBDYJYW6VAMRGC3T3B22SX",
    "name": "Archiv der Samtgemeinde und Stadt Dransfeld",
    "sector": "sec_01",
    "latitude": "51.5040291",
    "longitude": "9.759558",
    "locationDisplayName": "Rathaus, Kirchplatz, Dransfeld, Samtgemeinde Dransfeld, Landkreis Göttingen, Niedersachsen, 37127, Deutschland, Europa",
    "hasItems": false,
    "numberOfItems": 0,
    "children": [],
    "level": -1
  },
  {
    "id": "IPO6PTIOWICJAS42YQFHQHMI2RH2TDD6",
    "name": "Archiv der Schenk Freiherren von Stauffenberg",
    "sector": "sec_01",
    "latitude": "48.13706",
    "longitude": "9.3557",
    "locationDisplayName": "10, Stauffenbergstraße, Eisighof, Wilflingen, Langenenslingen, Gemeindeverwaltungsverband Riedlingen, Landkreis Biberach, Regierungsbezirk Tübingen, Baden-Württemberg, 88515, Deutschland",
    "hasItems": false,
    "numberOfItems": 0,
    "children": [],
    "level": -1
  },
  {
    "id": "AFSVSOCF2X7WMGUT2NHUYWM5W76NFELE",
    "name": "Archiv der Sky Deutschland Fernsehen GmbH & Co. KG",
    "sector": "sec_01",
    "latitude": "48.190899",
    "longitude": "11.657313",
    "locationDisplayName": "Sky Deutschland Fernsehen GmbH & Co. KG, 26, Medienallee, Unterföhring, Landkreis München, Oberbayern, Bayern, 85774, Deutschland",
    "hasItems": false,
    "numberOfItems": 0,
    "children": [],
    "level": -1
  },
  {
    "id": "WQFEVKHWJSOL5OGCEQHKHOVCB3K65SSV",
    "name": "Archiv der sozialen Demokratie der Friedrich-Ebert-Stiftung",
    "sector": "sec_01",
    "latitude": "50.7022126",
    "longitude": "7.1347877",
    "locationDisplayName": "Friedrich Ebert Stiftung, 149, Godesberger Allee, Friesdorf, Bad Godesberg, Bonn, Nordrhein-Westfalen, 53175, Deutschland",
    "hasItems": true,
    "numberOfItems": 23877,
    "children": [
      {
        "id": "CZTZO4SBNHW34JVKYRWW67725WWGLZA5",
        "name": "Bibliothek der Friedrich-Ebert-Stiftung",
        "sector": "sec_02",
        "latitude": "50.7022126",
        "longitude": "7.1347877",
        "locationDisplayName": "Friedrich Ebert Stiftung, 149, Godesberger Allee, Friesdorf, Bad Godesberg, Bonn, Nordrhein-Westfalen, 53175, Deutschland",
        "hasItems": true,
        "numberOfItems": 23877,
        "children": [],
        "level": -1
      }
    ],
    "level": -1
  },
  {
    "id": "KESUO4CJF3D5T757QYQQ7DUR3UGDPSMW",
    "name": "Archiv der Stadtsparkasse Bocholt",
    "sector": "sec_01",
    "latitude": "51.83795",
    "longitude": "6.61429",
    "locationDisplayName": "8, Markt, Stenern, Bocholt, Kreis Borken, Regierungsbezirk Münster, Nordrhein-Westfalen, 46399, Deutschland",
    "hasItems": false,
    "numberOfItems": 0,
    "children": [],
    "level": -1
  },
  {
    "id": "FYYZIDDLNCHR3LAFSXUXSZ6ZZYPKCMY4",
    "name": "Archiv der Stadtverwaltung Neu-Isenburg",
    "sector": "sec_01",
    "latitude": "50.055",
    "longitude": "8.69489",
    "locationDisplayName": "51, Frankfurter Straße, Neu-Isenburg, Landkreis Offenbach, Regierungsbezirk Darmstadt, Hessen, 63263, Deutschland",
    "hasItems": false,
    "numberOfItems": 0,
    "children": [],
    "level": -1
  },
  {
    "id": "QQDVK2S6PM4ETFU2ICX7OZVPP5NRITK5",
    "name": "Archiv der Stereosammlung Selle",
    "sector": "sec_01",
    "latitude": "50.9320995",
    "longitude": "6.9538998",
    "locationDisplayName": "32, Blaubach, Kapitolviertel, Altstadt-Süd, Innenstadt, Köln, Regierungsbezirk Köln, Nordrhein-Westfalen, 50676, Deutschland",
    "hasItems": false,
    "numberOfItems": 0,
    "children": [],
    "level": -1
  },
  {
    "id": "ULKITXEQ42J3KPKK3CDCNWY7RO23AJGO",
    "name": "Archiv der Stiftung Automuseum Volkswagen Wolfsburg",
    "sector": "sec_01",
    "latitude": "52.42761",
    "longitude": "10.80928",
    "locationDisplayName": "Volkswagen AutoMuseum, Dieselstraße, Wohnpark Drömlingstraße, Heßlingen, Wolfsburg, Niedersachsen, 38446, Deutschland",
    "hasItems": false,
    "numberOfItems": 0,
    "children": [],
    "level": -1
  },
  {
    "id": "IYBOISU5PGQNT5PHWCZVEM6MRMKOUVK6",
    "name": "Archiv der Stiftung Bauhaus Dessau",
    "sector": "sec_01",
    "latitude": "51.83936",
    "longitude": "12.22734",
    "locationDisplayName": "Bauhaus, 38, Gropiusallee, Ziebigk, Dessau, Dessau-Roßlau, Sachsen-Anhalt, 06846, Deutschland",
    "hasItems": false,
    "numberOfItems": 0,
    "children": [],
    "level": -1
  },
  {
    "id": "FGIGKPI24JW2S4LRJQQJVWPIZKT7U2FE",
    "name": "Archiv der Stiftung DLEH Hermann-Lietz-Schule",
    "sector": "sec_01",
    "latitude": "50.59025",
    "longitude": "9.8309",
    "locationDisplayName": "Fuldaer Straße, Hofbieber, Landkreis Fulda, Regierungsbezirk Kassel, Hessen, 36145, Deutschland, Europa",
    "hasItems": false,
    "numberOfItems": 0,
    "children": [],
    "level": -1
  },
  {
    "id": "PYKED4626NLTPARIQD2TKJ75VCSDKJNQ",
    "name": "Archiv der Stiftung Maximilianeum",
    "sector": "sec_01",
    "latitude": "48.13613",
    "longitude": "11.59419",
    "locationDisplayName": "Maximilianeum, 1, Max-Planck-Straße, Bezirksteil Maximilianeum, Stadtbezirk 05 Au-Haidhausen, München, Oberbayern, Bayern, 81675, Deutschland",
    "hasItems": false,
    "numberOfItems": 0,
    "children": [],
    "level": -1
  },
  {
    "id": "5JEHUSPIXDBQDUXAI4D7OETQNMWL3IP3",
    "name": "Archiv der Stiftung Naturschutzgeschichte",
    "sector": "sec_01",
    "latitude": "50.6672658",
    "longitude": "7.2080046",
    "locationDisplayName": "Eselweg, Königswinter, Wintermühlenhof, Königswinter, Rhein-Sieg-Kreis, Regierungsbezirk Köln, Nordrhein-Westfalen, 53639, Deutschland",
    "hasItems": false,
    "numberOfItems": 0,
    "children": [],
    "level": -1
  },
  {
    "id": "EE6G4WRMD6XUW27YGL53VICXSRJDNV3H",
    "name": "Archiv der Stiftung Reichspräsident-Friedrich-Ebert-Gedenkstätte Heidelberg",
    "sector": "sec_01",
    "latitude": "49.41231",
    "longitude": "8.70827",
    "locationDisplayName": "27, Untere Straße, Altstadt, Heidelberg, Regierungsbezirk Karlsruhe, Baden-Württemberg, 69117, Deutschland",
    "hasItems": false,
    "numberOfItems": 0,
    "children": [],
    "level": -1
  },
  {
    "id": "GNDXSQALD5YSHH7UDVUVABLU2VNWMU7J",
    "name": "Archiv der Südwestfälischen Industrie- und Handelskammer zu Hagen",
    "sector": "sec_01",
    "latitude": "51.359971",
    "longitude": "7.469606",
    "locationDisplayName": "SIHK Parkplatz, Karl-Marx-Straße, Mittelstadt, Hagen Mitte, Hagen, Regierungsbezirk Arnsberg, Nordrhein-Westfalen, 58095, Deutschland",
    "hasItems": false,
    "numberOfItems": 0,
    "children": [],
    "level": -1
  },
  {
    "id": "JGKDKSQAN7CL6KAWEO7N3PCTQE5L7LSJ",
    "name": "Archiv der Theologischen Fakultät Paderborn",
    "sector": "sec_01",
    "latitude": "51.7161",
    "longitude": "8.75508",
    "locationDisplayName": "Gymnasium Theodorianum, 4, Kamp, Paderborn, Kreis Paderborn, Regierungsbezirk Detmold, Nordrhein-Westfalen, 33098, Deutschland",
    "hasItems": false,
    "numberOfItems": 0,
    "children": [],
    "level": -1
  },
  {
    "id": "PH5FBKAZLKG4Q54BOHVGZIQNWIQN33PM",
    "name": "Archiv der Universität Erfurt",
    "sector": "sec_01",
    "latitude": "50.9914445",
    "longitude": "11.0112401",
    "locationDisplayName": "EVAG, 63, Nordhäuser Straße, Andreasvorstadt, Erfurt, Thüringen, 99089, Deutschland, Europa",
    "hasItems": false,
    "numberOfItems": 0,
    "children": [],
    "level": -1
  },
  {
    "id": "AK6VT4NRLVSNLW2BAMDQTO5PZNZ5763U",
    "name": "Archiv der Vereinigung der Freunde von Burg Rothenfels",
    "sector": "sec_01",
    "latitude": "49.8925766",
    "longitude": "9.5873667",
    "locationDisplayName": "Zum Löwen, Bergrothenfelser Straße, Bergrothenfels, Verwaltungsgemeinschaft Marktheidenfeld, Landkreis Main-Spessart, Unterfranken, Bayern, 97851, Deutschland, Europa",
    "hasItems": false,
    "numberOfItems": 0,
    "children": [],
    "level": -1
  },
  {
    "id": "IBTY3NTPEV5J5FACFTHMYZET4DQ3OPB5",
    "name": "Archiv der Vereinten Dienstleistungsgewerkschaft (ver.di)",
    "sector": "sec_01",
    "latitude": "52.50873",
    "longitude": "13.4281",
    "locationDisplayName": "ver.di Bundesverwaltung, 10, Paula-Thiede-Ufer, Mitte, Berlin, 10179, Deutschland",
    "hasItems": false,
    "numberOfItems": 0,
    "children": [],
    "level": -1
  },
  {
    "id": "MRFMFSORIKR2GOWQFCGVKPORQENJ4U4P",
    "name": "Archiv der Verlagsgruppe Handelsblatt GmbH Düsseldorf",
    "sector": "sec_01",
    "latitude": "51.2201193",
    "longitude": "6.7752326",
    "locationDisplayName": "67, Kasernenstraße, Stadtbezirk 1, Düsseldorf, Regierungsbezirk Düsseldorf, Nordrhein-Westfalen, 40213, Deutschland",
    "hasItems": false,
    "numberOfItems": 0,
    "children": [],
    "level": -1
  },
  {
    "id": "G6M5KLVACOZXFQPTFNQGKH7UGCVNST5L",
    "name": "Archiv der Verlagsgruppe Rhein Main",
    "sector": "sec_01",
    "latitude": "49.95967",
    "longitude": "8.20986",
    "locationDisplayName": "2, Erich-Dombrowski-Straße, Marienborn, Mainz, Rheinland-Pfalz, 55127, Deutschland",
    "hasItems": false,
    "numberOfItems": 0,
    "children": [],
    "level": -1
  },
  {
    "id": "H54OC24CEO3GWGLUK4IOU74HP6BEFXYV",
    "name": "Archiv der Verwaltungsgemeinschaft Bad Tennstedt",
    "sector": "sec_01",
    "latitude": "51.15394",
    "longitude": "10.83784",
    "locationDisplayName": "Markt, Bad Tennstedt, Unstrut-Hainich-Kreis, Thüringen, 99955, Deutschland, Europa",
    "hasItems": false,
    "numberOfItems": 0,
    "children": [],
    "level": -1
  },
  {
    "id": "CEXR4NGDPKKAA4H76X422IW7OQMQVTP2",
    "name": "Archiv der Verwaltungsgemeinschaft Sayda/Dorfchemnitz",
    "sector": "sec_01",
    "latitude": "50.764",
    "longitude": "13.45166",
    "locationDisplayName": "3, Kammstraße, Rittergut, Dorfchemnitz, Sayda, Landkreis Mittelsachsen, Sachsen, 09619, Deutschland",
    "hasItems": false,
    "numberOfItems": 0,
    "children": [],
    "level": -1
  },
  {
    "id": "6T76NKLUFCESGRKNWXDCJH47SFULGVYC",
    "name": "Archiv der VGH Versicherungen",
    "sector": "sec_01",
    "latitude": "52.3703133",
    "longitude": "9.7456624",
    "locationDisplayName": "VGH und ivv, 4, Schiffgraben, Mitte, Hannover, Region Hannover, Niedersachsen, 30159, Deutschland",
    "hasItems": false,
    "numberOfItems": 0,
    "children": [],
    "level": -1
  },
  {
    "id": "EF3ZAGPUKPW2AJ624DJ2LDL5FULFTHC7",
    "name": "Archiv der Volkswagen AG",
    "sector": "sec_01",
    "latitude": "52.4382922",
    "longitude": "10.7542084",
    "locationDisplayName": "Halle 107, Straße 80, Volkswagen AG, Wohltberg, Wolfsburg, Niedersachsen, 38440, Deutschland",
    "hasItems": false,
    "numberOfItems": 0,
    "children": [],
    "level": -1
  },
  {
    "id": "ZKSPU6LPLBOPNIYU5KFJ3BN6K5TKG6R5",
    "name": "Archiv der Wüstenrot Bausparkasse AG",
    "sector": "sec_01",
    "latitude": "48.88416",
    "longitude": "9.19041",
    "locationDisplayName": "Wüstenrot Bausparkasse AG, 1, Wüstenrotstraße, Karlshöhe, Ludwigsburg - Süd, Ludwigsburg, Landkreis Ludwigsburg, Regierungsbezirk Stuttgart, Baden-Württemberg, 71638, Deutschland",
    "hasItems": false,
    "numberOfItems": 0,
    "children": [],
    "level": -1
  },
  {
    "id": "3VVEXT3JTKAYFWR75JVETRZNWE5CDCI5",
    "name": "Archiv der-Grafen Wolff Metternich zur Gracht",
    "sector": "sec_01",
    "latitude": "51.8492556",
    "longitude": "9.0306972",
    "locationDisplayName": "Nepomuk, Johannesbrücke, Vinsebeck, Steinheim, Kreis Höxter, Regierungsbezirk Detmold, Nordrhein-Westfalen, 32839, Deutschland",
    "hasItems": false,
    "numberOfItems": 0,
    "children": [],
    "level": -1
  },
  {
    "id": "F44HRZAZS2KWNKEPFBXCYWSV3H5ACMXW",
    "name": "Archiv derer von Boch-Galhau",
    "sector": "sec_01",
    "latitude": "49.3761073",
    "longitude": "6.6801454",
    "locationDisplayName": "Wallerfanger Straße, Rehlingen, Rehlingen-Siersburg, Landkreis Saarlouis, Saarland, 66780, Deutschland",
    "hasItems": false,
    "numberOfItems": 0,
    "children": [],
    "level": -1
  },
  {
    "id": "GQB7MFOXBOPNC2P4UCXXPCMOKNAZQ7QJ",
    "name": "Archiv des ADAC Allgemeiner Deutscher Automobil-Club e. V.",
    "sector": "sec_01",
    "latitude": "48.133608",
    "longitude": "11.5274567",
    "locationDisplayName": "5, Tübinger Straße, Hansapark, Bezirksteil Land in Sonne, Stadtbezirk 07 Sendling-Westpark, München, Oberbayern, Bayern, 80686, Deutschland",
    "hasItems": false,
    "numberOfItems": 0,
    "children": [],
    "level": -1
  },
  {
    "id": "DVOQ7SOXFFA7U3VRCZHSSOQ6E3DPEJW5",
    "name": "Archiv des Aktion Mensch e.V.",
    "sector": "sec_01",
    "latitude": "50.70486",
    "longitude": "7.14333",
    "locationDisplayName": "Aktion Mensch, 36, Heinemannstraße, Hochkreuz, Bad Godesberg, Bonn, Regierungsbezirk Köln, Nordrhein-Westfalen, 53175, Deutschland",
    "hasItems": false,
    "numberOfItems": 0,
    "children": [],
    "level": -1
  },
  {
    "id": "JJLC5V53DBMBIPSK2ECRDWBXWXJJCZZP",
    "name": "Archiv des Amtes Kisdorf",
    "sector": "sec_01",
    "latitude": "53.81211",
    "longitude": "10.01922",
    "locationDisplayName": "Lehmkuhlen, Kisdorf, Kreis Segeberg, Schleswig-Holstein, 24629, Deutschland",
    "hasItems": false,
    "numberOfItems": 0,
    "children": [],
    "level": -1
  },
  {
    "id": "P4DM7H5ADHAQKLYYFU4NPMM7BSK3XGOJ",
    "name": "Archiv des ASB Deutschland e.V.",
    "sector": "sec_01",
    "latitude": "50.9190764",
    "longitude": "6.9215907",
    "locationDisplayName": "142, Sülzburgstraße, Sülz, Lindenthal, Köln, Regierungsbezirk Köln, Nordrhein-Westfalen, 50937, Deutschland",
    "hasItems": false,
    "numberOfItems": 0,
    "children": [],
    "level": -1
  },
  {
    "id": "6J7Y55HZGF6YREDI32JNOE5TCGCIBN62",
    "name": "Archiv des Bankhaus Sal. Oppenheim Jr. & Cie",
    "sector": "sec_01",
    "latitude": "50.9430093",
    "longitude": "6.9530393",
    "locationDisplayName": "Sal. Oppenheim, 4, Unter Sachsenhausen, Ursulaviertel, Altstadt-Nord, Innenstadt, Köln, Regierungsbezirk Köln, Nordrhein-Westfalen, 50667, Deutschland",
    "hasItems": false,
    "numberOfItems": 0,
    "children": [],
    "level": -1
  },